,lat,lng,name,biz_id,address,type_class,type_name,type_custom,hours
0,55.721905,37.628441,Варакс,217948117485,"Россия, Москва, 1-й Щипковский переулок, 1",fitness,"Спортивный клуб, секция",sport,"пн,чт 20:00–22:00"
1,55.741542,37.656509,Герберг,10361606301,"Россия, Москва, Таганская улица, 1/2с2",restaurants,Ресторан,cafe,"пн-чт 12:00–00:00; пт,сб 12:00–02:00; вс 12:00–00:00"
2,55.704098,37.615884,Loft 17,1330525046,"Россия, Москва, Духовской переулок, 7/9, стр. 1",office service,Агентство недвижимости,services,"ежедневно, 09:00–21:00"
3,55.702853,37.49786,Comfort Beauty,175571644892,"Россия, Москва, улица Столетова, 19",spa,Салон красоты,beauty,"ежедневно, 10:00–22:00"
4,55.711082,37.593623,Nails Up,231231652827,"Россия, Москва, 2-й Донской проезд, 10, стр. 4",spa,Ногтевая студия,beauty,"ежедневно, 10:00–22:00"
5,55.708938,37.624643,Кофе с собой,4062232879,"Россия, Москва, Холодильный переулок, 3, стр. 2",cafe,Кофейня,cafe,"пн-пт 08:00–21:00; сб,вс 09:00–21:00"
6,55.675493,37.566365,Нотариус Булавинова А. П.,1122498771,"Россия, Москва, Нахимовский проспект, 47, корп. 1",office service,Нотариусы,services,пн-пт 10:00–18:00
7,55.723486,37.677463,Ночной каток Морозово,1164018151,"Россия, Москва, Новоостаповская улица, 5, стр. 2",skating rink,Каток,entertainment,сб 22:00–05:30
8,55.722679,37.627544,Додо Пицца,155681051597,"Россия, Москва, Большая Серпуховская улица, 31, корп. 11",restaurants,Пиццерия,cafe,"пн-пт 09:00–22:00; сб,вс 10:00–22:00"
9,55.727806,37.61416,Манхэттен Премиум Фитнес,174523270608,"Россия, Москва, Калужская площадь, 1, корп. 2",fitness,Фитнес-клуб,sport,"пн-пт 07:00–23:00; сб,вс 09:00–22:00"
10,55.72355,37.611344,Cesare Ponti,39319129318,"Россия, Москва, улица Шаболовка, 19",spa,Салон красоты,beauty,"ежедневно, 09:00–22:00"
11,55.738586,37.519665,Get Fit Gym,127917199337,"Россия, Москва, площадь Победы, 2В",fitness,"Спортивный, тренажёрный зал",sport,"пн-пт 07:00–23:00; сб,вс 09:00–21:00"
12,55.689617,37.562136,КМ-Клиник,1054532809,"Россия, Москва, улица Дмитрия Ульянова, 6, корп. 1",medicine,"Медцентр, клиника",medicine,пн-сб 09:00–20:00; вс 09:00–18:00
13,55.74222,37.616629,Sally O'Brien's,1099238703,"Россия, Москва, улица Большая Полянка, 1/3",bars,"Бар, паб",cafe,"ежедневно, 12:00–23:00"
14,55.700175,37.625543,Crop. coffee & smoothie bar,101022147404,"Россия, Москва, Варшавское шоссе, 9, стр. 1",cafe,Кофейня,cafe,пн-пт 08:00–19:30
15,55.683239,37.539482,Диджитал Бизнес,199514373465,"Россия, Москва, Ленинский проспект, 81",office service,Бизнес-консалтинг,business,пн-пт 09:00–20:00
16,55.721574,37.626987,SetteMila,149194526263,"Россия, Москва, Большая Серпуховская улица, 50/2с1",cafe,Кафе,cafe,"ежедневно, 10:00–22:00"
17,55.741465,37.540784,Нотариальная контора,1131983465,"Россия, Москва, Кутузовский проспект, 33",office service,Нотариусы,services,пн-пт 10:00–20:00
18,55.670021,37.55248,Century21 Юго-Запад,133186806692,"Россия, Москва, Профсоюзная улица, 56",office service,Агентство недвижимости,services,пн-пт 09:00–18:00
19,55.717259,37.666522,Кэнбу Кокоро,125838263085,"Россия, Москва, Новоостаповская улица, 4, корп. 2",fitness,"Спортивный клуб, секция",sport,"пн,пт 16:30–19:30"
20,55.751923,37.585925,Crystal Estate,1034294955,"Россия, Москва, улица Новый Арбат, 21",office service,Агентство недвижимости,services,"ежедневно, 10:00–20:00"
21,55.702994,37.506584,Look Beauty Lab,1546649587,"Россия, Москва, Мичуринский проспект, 16",spa,Салон красоты,beauty,"ежедневно, 10:00–22:00"
22,55.733575,37.619139,Персона Полянка,1805998113,"Россия, Москва, улица Большая Полянка, 30",spa,Салон красоты,beauty,"ежедневно, 10:00–22:00"
23,55.71661,37.551951,CrossFit19.05,211527876392,"Россия, Москва, улица Лужники, 24, стр. 1",fitness,Фитнес-клуб,sport,"пн-пт 07:00–23:00; сб,вс 09:00–21:00"
24,55.673664,37.567756,Алм Медицина,105245800988,"Россия, Москва, Новочерёмушкинская улица, 55к2",medicine,Диагностический центр,medicine,"пн-пт 08:00–20:00; сб,вс 09:00–19:00"
25,55.742534,37.595414,ГлавУпДК при МИД России,1078960224,"Россия, Москва, улица Пречистенка, 20",office service,Агентство недвижимости,services,пн-пт 09:00–18:00
26,55.719455,37.608275,Хлеб Насущный,114922227781,"Россия, Москва, улица Шаболовка, 30/12",confectionary,"Булочная, пекарня",cafe,"пн-пт 07:00–22:00; сб,вс 08:00–21:00"
27,55.690098,37.602714,Сиена,60149338344,"Россия, Москва, Большая Черёмушкинская улица, 1",spa,Салон красоты,beauty,"ежедневно, 10:00–22:00"
28,55.733942,37.627383,Nicepricecafe,83802292726,"Россия, Москва, Пятницкая улица, 54, стр. 2",cafe,Кафе,cafe,"пн-чт 11:00–00:00; пт,сб 11:00–06:00; вс 11:00–00:00"
29,55.694607,37.676131,Остров мечты,81953640011,"Россия, Москва, проспект Андропова, 1",malls,Торговый центр,entertainment,"ежедневно, 10:00–22:00"
30,55.699106,37.634721,Pride,26858262978,"Россия, Москва, улица Архитектора Щусева, 2, корп. 2",restaurants,Ресторан,cafe,пн-сб круглосуточно; вс 06:00–23:00
31,55.709487,37.586541,NailMaker Bar,140154556902,"Россия, Москва, Ленинский проспект, 37А",spa,Ногтевая студия,beauty,"ежедневно, 10:00–22:00"
32,55.708607,37.58667,Pilates Class,205777977682,"Россия, Москва, Ленинский проспект, 37А",fitness,Фитнес-клуб,sport,"пн-пт 10:00–22:00; сб,вс 10:00–18:00"
33,55.746522,37.581514,Вингс Принт,117988365075,"Россия, Москва, Смоленская улица, 6",printing services,Копировальный центр,services,"пн-пт 09:00–20:00; сб,вс 10:00–19:00"
34,55.738641,37.666172,Физкультурно-оздоровительный комплекс Парка Таганский,1209618403,"Россия, Москва, Таганская улица, 36, стр. 3",fitness,Спортивный комплекс,sport,"ежедневно, 07:00–23:00"
35,55.712119,37.658981,Спика,50533603658,"Россия, Москва, Восточная улица, 13",spa,Салон красоты,beauty,"ежедневно, 10:00–21:00"
36,55.730786,37.631424,Paradise,1058023675,"Россия, Москва, Валовая улица, 8/18",spa,Салон красоты,beauty,пн-сб 10:00–21:00; вс 10:00–19:00
37,55.710027,37.623834,Starbucks,1115997380,"Россия, Москва, Большая Тульская улица, 11",cafe,Кофейня,cafe,"ежедневно, 08:00–23:00"
38,55.729473,37.633317,Zoloto,212371597530,"Россия, Москва, улица Зацепа, 21, стр. 2",hairdressers,Парикмахерская,beauty,"ежедневно, 10:00–23:00"
39,55.748924,37.54294,Tapas Marbella,231882320353,"Россия, Москва, Пресненская набережная, 4, стр. 1",restaurants,Ресторан,cafe,пн-пт 12:00–22:00
40,55.716828,37.610367,ПомПон,1798711989,"Россия, Москва, улица Шухова, 18",spa,Салон красоты,beauty,"ежедневно, 10:00–21:00"
41,55.753205,37.585996,Zamute,5887839808,"Россия, Москва, улица Новый Арбат, 26",fitness,Фитнес-клуб,sport,"ежедневно, 09:00–21:00"
42,55.726647,37.576794,Сил Бьюти,74104992420,"Россия, Москва, Трубецкая улица, 28, стр. 1",spa,Салон красоты,beauty,"ежедневно, 10:00–22:00"
43,55.704808,37.597809,Mondial International Realty,127626684823,"Россия, Москва, 5-й Донской проезд, 21Б, стр. 10",office service,Агентство недвижимости,services,"ежедневно, круглосуточно"
44,55.695963,37.557999,Quick Beauty,195603337333,"Россия, Москва, Ленинский проспект, 60/2",spa,Салон красоты,beauty,"ежедневно, 10:00–21:00"
45,55.702769,37.651672,Московский центр Крав мага,169965605897,"Россия, Москва, Автозаводская улица, 21",fitness,"Спортивный клуб, секция",sport,"пн,ср,пт,вс 17:00–22:00"
46,55.670492,37.566266,Астория-бьюти,1106098446,"Россия, Москва, Новочерёмушкинская улица, 50",spa,Салон красоты,beauty,пн-сб 09:00–21:00; вс 10:00–21:00
47,55.673296,37.577685,Art'e,1177832385,"Россия, Москва, Нахимовский проспект, 28, корп. 1",spa,Салон красоты,beauty,"ежедневно, 10:00–21:00"
48,55.683169,37.548889,Триумфальный,1039804468,"Россия, Москва, улица Вавилова, 66",malls,Торговый центр,malls,"ежедневно, 10:00–21:00"
49,55.722824,37.635937,Камера Обскура Кофе,101077993684,"Россия, Москва, Дубининская улица, 68, стр. 3",cafe,Кофейня,cafe,пн-пт 08:00–20:00; сб 10:00–18:00
50,55.747289,37.655039,Таверна Дядя Геральт,245212423246,"Россия, Москва, улица Земляной Вал, 58",cafe,Кафе,cafe,"пн-чт 12:00–00:00; пт,сб 12:00–02:00; вс 12:00–00:00"
51,55.739144,37.661101,Mon Caprice,67226909993,"Россия, Москва, Таганская улица, 24, стр. 4",spa,Салон красоты,beauty,"ежедневно, круглосуточно"
52,55.728664,37.610594,Eurostate,1110168792,"Россия, Москва, Ленинский проспект, 2А",fallback services,Помощь в оформлении виз и загранпаспортов,services,пн-пт 09:00–19:00
53,55.73081,37.641852,Бизнес Старт,133311321323,"Россия, Москва, Кожевническая улица, 1, стр. 1",office service,Регистрация и ликвидация предприятий,business,пн-пт 09:00–18:00
54,55.725654,37.596171,Островок,1226038354,"Россия, Москва, улица Крымский Вал, 9, стр. 52",cafe,Кафе,cafe,"пн-пт 11:00–22:00; сб,вс 10:00–22:00"
55,55.687918,37.599956,Le Mari,1319373186,"Россия, Москва, Большая Черёмушкинская улица, 3, корп. 2",hairdressers,Парикмахерская,beauty,"ежедневно, 09:00–21:00"
56,55.724814,37.745221,Aquarium,35131238415,"Россия, Москва, 2-й Грайвороновский проезд, 42, корп. 4",cafe,Кафе,cafe,"ежедневно, 11:00–23:00"
57,55.660523,37.511255,Баскетбольное Шоу,17917506598,"Россия, Москва, улица Обручева, 6, корп. 3",attraction,Развлекательный центр,entertainment,"ежедневно, круглосуточно"
58,55.651159,37.744785,Магазин,1167583199,"Россия, Москва, Люблинская улица, 163/1",malls,Торговый центр,malls,пн-сб 10:00–21:00; вс 10:00–20:00
59,55.725336,37.625576,Yana colorbeauty,23583075886,"Россия, Москва, Большая Серпуховская улица, 32, стр. 1",hairdressers,Парикмахерская,beauty,"ежедневно, 10:00–21:00"
60,55.70356,37.511055,Хлеб Насущный,178323776028,"Россия, Москва, Мичуринский проспект, 5",confectionary,"Булочная, пекарня",cafe,"пн-пт 07:00–22:00; сб,вс 08:00–22:00"
61,55.672934,37.746956,Темп-досуг,1005349035,"Россия, Москва, улица Судакова, 11с2",malls,Торговый центр,malls,пн-пт 10:00–20:00; сб 10:00–19:00; вс 11:00–18:00
62,55.731192,37.621301,Space Owl,177291462902,"Россия, Москва, улица Большая Полянка, 54",restaurants,Ресторан,cafe,"ежедневно, 12:00–23:00"
63,55.716493,37.6459,SaharaSkyStudio,58438095002,"Россия, Москва, Павелецкая набережная, 2, стр. 4",fallback services,Аренда фотостудий,services,"ежедневно, круглосуточно"
64,55.686723,37.572994,Шоколадница,194464335292,"Россия, Москва, улица Дмитрия Ульянова, 24/1",cafe,Кофейня,cafe,"ежедневно, 08:00–23:00"
65,55.726697,37.527696,Fit-n-Go,217913583815,"Россия, Москва, улица Пудовкина, 7",fitness,Фитнес-клуб,sport,"ежедневно, 09:00–22:00"
66,55.707831,37.583482,Буркина фасоль,108617757282,"Россия, Москва, Ленинский проспект, 39/1",cafe,Кафе,cafe,"ежедневно, 08:00–23:00"
67,55.741411,37.532088,MedEx,224824146588,"Россия, Москва, Кутузовский проспект, 32, корп. 1",medicine,"Медцентр, клиника",medicine,пн-пт 08:00–20:00; сб 09:00–15:45
68,55.744696,37.624876,Кулинарная лавка братьев Караваевых,9243908728,"Россия, Москва, улица Большая Ордынка, 7, стр. 1",cafe,Кафе,cafe,"ежедневно, 08:00–23:00"
69,55.736375,37.622775,Correas,1336007402,"Россия, Москва, улица Большая Ордынка, 40, стр. 2",restaurants,Ресторан,cafe,"пн-пт 08:00–23:00; сб,вс 09:00–23:00"
70,55.745524,37.559866,Girl Boss,120652458842,"Россия, Москва, Брянская улица, 32, стр. 9",spa,Салон красоты,beauty,"ежедневно, 10:00–22:00"
71,55.733481,37.62327,Гармония,1229923455,"Россия, Москва, Щетининский переулок, 9с1",medicine,"Медцентр, клиника",medicine,"ежедневно, 10:00–22:00"
72,55.680184,37.632961,Beauty pro,20353311143,"Россия, Москва, Нагатинская улица, 4, корп. 3",spa,Косметология,beauty,"ежедневно, 10:00–22:00"
73,55.713753,37.750706,Torsher,1397215763,"Россия, Москва, улица Васильцовский Стан, 5, корп. 1",cafe,Кафе,cafe,"ежедневно, 11:00–23:00"
74,55.71127,37.652041,Кириллов и партнёры,11176001681,"Россия, Москва, улица Ленинская Слобода, 26, стр. 5",office service,Адвокаты,services,пн-пт 10:30–18:30
75,55.74374,37.629583,Фото-копировальный центр Копирка,217477346177,"Россия, Москва, Большой Овчинниковский переулок, 20",printing services,Полиграфические услуги,services,"пн-пт 10:00–20:55; сб,вс 10:00–18:55"
76,55.750535,37.536526,Нотариус Балышева О. В.,87202691070,"Россия, Москва, 1-й Красногвардейский проезд, 19",office service,Нотариусы,services,пн-чт 10:00–19:00; пт 10:00–18:00
77,55.717742,37.61335,Между Делом,39598108590,"Россия, Москва, улица Шаболовка, 37, стр. 9",cafe,Столовая,cafe,пн-пт 09:00–19:00
78,55.716768,37.552214,Московский Союз бильярдного спорта,76190011940,"Россия, Москва, улица Лужники, 24с1",sportcenter,Спортивное объединение,sport,пн-пт 10:00–18:00
79,55.727567,37.62908,"РЭУ имени Г. В. Плеханова, Международная школа бизнеса и мировой экономики",230163780186,"Россия, Москва, Стремянный переулок, 28, стр. 1",college,Бизнес-школа,business,пн-пт 09:00–19:00; сб 10:00–14:00
80,55.737137,37.642393,Le carré,244028324414,"Россия, Москва, Садовническая улица, 69",restaurants,Ресторан,cafe,"ежедневно, 12:00–23:00"
81,55.752302,37.611175,Достоевский,89314470858,"Россия, Москва, улица Воздвиженка, 1",malls,Книжный магазин,cafe,"ежедневно, 10:00–22:00"
82,55.704271,37.666674,ГБУ ЦД Даниил,144290815758,"Россия, Москва, улица Трофимова, 9к2",fallback fun,Клуб досуга,sport,пн-пт 10:00–21:00
83,55.675961,37.571255,Купи Бизнес - подбор готового бизнеса,41805055625,"Россия, Москва, Нахимовский проспект, 32",office service,Продажа готового бизнеса и франшиз,business,пн-пт 10:00–19:00
84,55.713836,37.617168,Арес,37888267988,"Россия, Москва, Городская улица, 8",fitness,"Спортивный клуб, секция",sport,пн 08:00–22:00; вт 09:00–23:00; ср 08:00–22:00; чт 09:00–23:00; пт 08:00–22:00; сб 09:00–22:00
85,55.657255,37.588476,Риэлтор Селимов А.В.,116018266560,"Россия, Москва, Одесская улица, 14к5",fallback services,Услуги частных специалистов,services,"ежедневно, 09:00–22:00"
86,55.705366,37.639916,Урюк,124113974512,"Россия, Москва, Автозаводская улица, 18",restaurants,Ресторан,cafe,"ежедневно, 10:00–00:00"
87,55.70948,37.624772,Можно с собой,64297960403,"Россия, Москва, Холодильный переулок, 3к1с1",bars,"Бар, паб",cafe,"пн-пт 09:00–22:00; сб,вс 11:00–21:00"
88,55.737785,37.62784,Рихтер,227575980951,"Россия, Москва, Пятницкая улица, 42",restaurants,Ресторан,cafe,"ежедневно, 09:00–23:00"
89,55.719185,37.614007,Бизнес Порт,91173213419,"Россия, Москва, Хавская улица, 3",office service,Деловые услуги для предпринимателей,business,пн-пт 10:00–18:30
90,55.741274,37.652751,Вегетарианский фудкорт Брокколи,148492427362,"Россия, Москва, Таганская площадь, 86/1с1",restaurants,Фудкорт,cafe,пн-чт 10:00–22:00; пт-вс 10:00–23:00
91,55.72598,37.682682,Федерация грэпплинга,96787597095,"Россия, Москва, Волгоградский проспект, 28, стр. 1",fitness,"Спортивный, тренажёрный зал",sport,"ежедневно, 08:00–23:00"
92,55.687661,37.541129,Новатор кофе,166880305842,"Россия, Москва, Ленинский проспект, 70/11",cafe,Кофейня,cafe,"пн-пт 08:00–22:00; сб,вс 09:00–22:00"
93,55.674676,37.52267,Столица,1085461632,"Россия, Москва, Ленинский проспект, 90",medicine,"Медцентр, клиника",medicine,"ежедневно, 08:00–22:00"
94,55.732241,37.58897,Business Lead,218809162005,"Россия, Москва, улица Льва Толстого, 5, стр. 1",office service,Бизнес-консалтинг,business,пн-пт 10:00–18:00
95,55.704681,37.654448,Zero Time,188826821517,"Россия, Москва, Автозаводская улица, 17, стр. 2",bars,"Бар, паб",cafe,"пн-пт 10:00–00:00; сб,вс 11:00–00:00"
96,55.658001,37.556485,Медицинское частное учреждение Отраслевой клинико-диагностический центр ПАО Газпром,1071766196,"Россия, Москва, улица Намёткина, 16, корп. 4",medicine,"Медцентр, клиника",medicine,пн-пт 08:00–20:00; сб 08:30–13:30
97,55.719362,37.606723,Айкидо клуб Каннагаре Додзё,1068695681,"Россия, Москва, улица Академика Петровского, 10",fitness,"Спортивный клуб, секция",sport,пн 17:00–22:00; ср 20:00–22:00; пт 17:00–22:00
98,55.721699,37.611734,Surf Coffee,143531603665,"Россия, Москва, Конный переулок, 12",cafe,Кофейня,cafe,"пн-пт 08:00–22:00; сб,вс 10:00–22:00"
99,55.738926,37.605346,Kontier,244902332745,"Россия, Москва, Пречистенская набережная, 15, стр. 2",spa,Салон красоты,beauty,"ежедневно, 10:00–22:00"
100,55.747771,37.715943,Секция боевого самбо Факел,20620365879,"Россия, Москва, 2-й Кабельный проезд, 1",fitness,"Спортивный клуб, секция",sport,"пн,ср,пт,сб,вс 16:00–18:00"
101,55.707872,37.617051,Канрит,1112390060,"Россия, Москва, Малая Тульская улица, 16",fitness,"Спортивный клуб, секция",sport,"ежедневно, 08:00–22:00"
102,55.74692,37.538825,See Beauty,225002515824,"Россия, Москва, Пресненская набережная, 8, стр. 1",spa,Салон красоты,beauty,"пн-пт 09:00–21:00; сб,вс 10:00–21:00"
103,55.741794,37.582538,Нотариус Прилепская Е. А.,1015993678,"Россия, Москва, Смоленский бульвар, 15",office service,Нотариусы,services,пн-пт 09:00–17:00
104,55.733239,37.563709,Zemlya Moscow,135570656075,"Россия, Москва, Большой Саввинский переулок, 12, стр. 6",restaurants,Ресторан,cafe,"ежедневно, 12:00–00:00"
105,55.679033,37.547797,Студия маникюра Елены Петрушиной,1727214300,"Россия, Москва, улица Вавилова, 79, корп. 1",spa,Ногтевая студия,beauty,"ежедневно, 10:00–21:00"
106,55.674864,37.734623,Контент Фактори,130656866638,"Россия, Москва, Егорьевский проезд, 3Ж, стр. 8",fallback services,Фотостудия,services,пн-пт 10:00–19:00
107,55.751999,37.576133,Корпорация эстетической медицины,1245573342,"Россия, Москва, улица Новый Арбат, 31/12",fallback services,Распространители косметики и бытовой химии,medicine,пн-пт 10:00–18:00
108,55.743872,37.626888,Нотариус Акимов Г.Б.,1053534596,"Россия, Москва, Пятницкая улица, 6/1с8",office service,Нотариусы,services,пн-чт 10:00–20:00; пт 10:00–17:00; сб 11:00–15:00
109,55.740572,37.635776,Пати Фитнес,51748748906,"Россия, Москва, Озерковский переулок, 7, стр. 1",fitness,Фитнес-клуб,sport,"ежедневно, 08:00–23:00"
110,55.746608,37.608733,Квартирное бюро 24,199093672284,"Россия, Москва, Пречистенская набережная, 45/1с2А",office service,Агентство недвижимости,services,"ежедневно, 09:00–21:00"
111,55.713189,37.606198,Салон красоты Леди Shine,1047401633,"Россия, Москва, улица Шаболовка, 52",spa,Салон красоты,beauty,"ежедневно, 10:00–21:00"
112,55.675947,37.661914,Гвоздь-2,65780993579,"Россия, Москва, проспект Андропова, 36",malls,Торговый центр,malls,"ежедневно, 10:00–21:00"
113,55.677272,37.577087,Салон Город Красоты,77773406864,"Россия, Москва, улица Кржижановского, 24/35к2",spa,Салон красоты,beauty,пн-сб 09:00–21:00; вс 09:00–20:00
114,55.711266,37.652506,Симонов Плаза,1324290868,"Россия, Москва, улица Ленинская Слобода, 26, стр. 5",office,Бизнес-центр,business,"ежедневно, 08:00–22:00"
115,55.726136,37.637629,Проекты для бизнеса. Учебно-консалтинговый центр,224207975238,"Россия, Москва, Дубининская улица, 27, стр. 1",office service,Бизнес-консалтинг,business,"ежедневно, 09:00–23:00"
116,55.695824,37.551367,Эридан-92,185872641654,"Россия, Москва, Университетский проспект, 3",fitness,"Спортивный клуб, секция",sport,"ежедневно, 17:30–22:00"
117,55.684498,37.624085,Нотариус Радинский С. А.,126788943823,"Россия, Москва, Варшавское шоссе, 39",office service,Нотариусы,services,"пн-пт 09:30–18:00, перерыв 13:00–13:30"
118,55.704524,37.615371,Loft Beauty,1292025221,"Россия, Москва, Духовской переулок, 17с11",spa,Салон красоты,beauty,"ежедневно, 10:00–22:00"
119,55.72091,37.650819,Корус Консалтинг,1100944171,"Россия, Москва, Дербеневская набережная, 11, корп. А",office service,Бизнес-консалтинг,business,пн-пт 09:00–18:00
120,55.721186,37.610624,Star Hit Cafe,1399440972,"Россия, Москва, улица Шаболовка, 31Г",cafe,Кофейня,cafe,"пн-пт 07:00–22:00; сб,вс 10:00–22:00"
121,55.752416,37.642863,Рескор,159411059370,"Россия, Москва, Певческий переулок, 1/2с2Б",office service,Агентство недвижимости,services,пн-пт 10:00–20:00
122,55.703985,37.626061,Кварталы,45736665546,"Россия, Москва, Варшавское шоссе, 1с1",office service,Квартиры в новостройках,services,пн-пт 10:00–20:00
123,55.71801,37.673106,Бест Компани,84389561954,"Россия, Москва, Шарикоподшипниковская улица, 22",office service,Агентство недвижимости,services,"ежедневно, 10:00–23:00"
124,55.70628,37.681664,Кожуховский самбист,1050368136,"Россия, Москва, 5-я Кожуховская улица, 35",fitness,"Спортивный клуб, секция",sport,пн-пт 19:00–21:00
125,55.708303,37.652813,Be Beauty Special,186778863478,"Россия, Москва, улица Ленинская Слобода, 19",spa,Косметология,beauty,"ежедневно, 09:00–22:00"
126,55.678758,37.640596,Imagine Plaza,1348426746,"Россия, Москва, Нагатинская улица, 16",office service,Бизнес-консалтинг,business,пн-пт 09:00–18:00
127,55.740735,37.547046,Медикъ,232370565676,"Россия, Москва, улица Дунаевского, 8, корп. 2",medicine,"Медцентр, клиника",medicine,"ежедневно, 08:00–22:00"
128,55.74267,37.543063,Торговый дом Москва,1059476587,"Россия, Москва, Кутузовский проспект, 31",malls,Торговый центр,malls,"ежедневно, 11:00–22:00"
129,55.750976,37.597332,Студия красоты Teddy Nails,56455682869,"Россия, Москва, Большой Афанасьевский переулок, 36, стр. 1",spa,Ногтевая студия,beauty,"ежедневно, 10:00–22:00"
130,55.734107,37.571892,Клиника колопроктологии и малоинвазивной хирургии Сеченовского университета,1002030950,"Россия, Москва, Погодинская улица, 1, стр. 1",medicine,Специализированная больница,medicine,пн-сб 08:00–19:00
131,55.72528,37.607754,Нотариус Алексеева С.А,227022742498,"Россия, Москва, Донская улица, 4, стр. 3",office service,Нотариусы,services,пн-пт 09:30–18:00
132,55.708354,37.652705,Place For Work,66421831368,"Россия, Москва, улица Ленинская Слобода, 19",office service,Агентство недвижимости,services,пн-пт 10:00–19:00
133,55.729234,37.633353,Зацепа. 21,54348638728,"Россия, Москва, улица Зацепа, 21с2",fitness,"Спортивный клуб, секция",sport,"ежедневно, 07:00–23:00"
134,55.721138,37.64772,Бизнес-парк Кожевники,176627785125,"Россия, Москва, Дербеневская улица, 20",office service,Продажа и аренда коммерческой недвижимости,business,пн-пт 09:00–18:00
135,55.710418,37.686491,Business-market. Store,162243986866,"Россия, Москва, Угрешская улица, 2, стр. 76",fallback services,Кассовые аппараты и расходные материалы,business,"ежедневно, 10:00–23:00"
136,55.676179,37.536203,Радуга,29303308223,"Россия, Москва, улица Гарибальди, 6, корп. 1",fallback services,Фотоуслуги,services,пн-чт 10:00–19:00; пт 10:00–18:00; сб 10:00–15:00
137,55.752248,37.596438,Валдай,1025140309,"Россия, Москва, улица Новый Арбат, 11, стр. 1",malls,Торговый центр,malls,"ежедневно, 10:00–21:00"
138,55.744774,37.659865,Premium Beauty,1398539583,"Россия, Москва, улица Станиславского, 11",hairdressers,Парикмахерская,beauty,"пн-пт 09:00–22:00; сб,вс 10:00–22:00"
139,55.718044,37.598047,Lamazi,1216087785,"Россия, Москва, Малая Калужская улица, 15, стр. 4",restaurants,Ресторан,cafe,"ежедневно, 10:00–23:00"
140,55.746437,37.628398,L.A.B Space,57800322633,"Россия, Москва, Садовническая набережная, 7",fitness,Фитнес-клуб,sport,"пн-пт 10:00–22:00; сб,вс 10:00–16:00"
141,55.693638,37.557342,Бодисферум,1286891179,"Россия, Москва, улица Дмитрия Ульянова, 4к1",spa,Косметология,beauty,"ежедневно, 09:00–21:00"
142,55.710672,37.615057,EvoPhoto,1204274629,"Россия, Москва, улица Серпуховский Вал, 7, стр. 3",fallback services,Фотоуслуги,services,"ежедневно, 09:00–21:00"
143,55.746056,37.634047,Центр поддержки бизнеса,1077727779,"Россия, Москва, Садовническая улица, 32, стр. 1",office service,Оценочная компания,business,пн-пт 10:00–18:00
144,55.690654,37.579744,Бассейн школы №45,1121044574,"Россия, Москва, улица Гримау, 8",swimming pool,Бассейн,sport,"пн-чт 07:00–21:45; пт 07:00–18:45; сб,вс 08:45–14:00"
145,55.661917,37.602436,Нотариус Семенникова Л. Г.,193560855506,"Россия, Москва, Сивашская улица, 4, корп. 2",office service,Нотариусы,services,пн-пт 10:00–18:00
146,55.717467,37.61273,I Do Calisthenics,221868689664,"Россия, Москва, улица Шухова, 14, стр. 9",fitness,Фитнес-клуб,sport,"ежедневно, 10:00–23:00"
147,55.749511,37.537083,Импульс Недвижимость,13935394321,"Россия, Москва, Пресненская набережная, 12",office service,Агентство недвижимости,services,пн-пт 08:00–21:00
148,55.711223,37.632627,Masters,41411296681,"Россия, Москва, Дубининская улица, 71",fitness,Фитнес-клуб,sport,"пн-пт 06:00–23:00; сб,вс 09:00–23:00"
149,55.68085,37.662863,CherryTown,20145935172,"Россия, Москва, проспект Андропова, 26",spa,Шугаринг,beauty,"ежедневно, 10:00–22:00"
150,55.677159,37.695348,Gymrush,23416258503,"Россия, Москва, Коломенская улица, 21, корп. 3",fitness,"Спортивный клуб, секция",sport,пн-пт 08:00–22:00; сб 09:00–17:00
151,55.721816,37.628556,Агентство Мьюзик Вижн,1046923998,"Россия, Москва, 1-й Щипковский переулок, 1",office service,Элитная недвижимость,services,пн-пт 11:00–19:00
152,55.720489,37.615452,U. B. C. Corporation,1350814217,"Россия, Москва, Мытная улица, 46, стр. 5",office service,Бизнес-консалтинг,business,пн-пт 09:00–18:00
153,55.688351,37.56992,City Nails,28911382025,"Россия, Москва, улица Дмитрия Ульянова, 16, корп. 1",spa,Ногтевая студия,beauty,"ежедневно, 10:00–22:00"
154,55.745254,37.653836,Эстетика,148531184939,"Россия, Москва, улица Земляной Вал, 68/18с5",spa,Салон бровей и ресниц,beauty,"ежедневно, 09:30–00:00"
155,55.678815,37.580581,Дворец творчества детей и молодёжи Севастополец,124843312308,"Россия, Москва, Большая Черёмушкинская улица, 38",college,Дополнительное образование,sport,"ежедневно, 09:00–21:00"
156,55.724069,37.580436,Недвижимость в Хамовниках,243116228858,"Россия, Москва, 2-я Фрунзенская улица, 12",office service,Агентство недвижимости,services,"пн-пт 09:00–20:00; сб,вс 10:00–18:00"
157,55.668541,37.591793,Нахимовский,1305086043,"Россия, Москва, Нахимовский проспект, 20А",malls,Торговый центр,malls,"ежедневно, 06:00–23:00"
158,55.656275,37.540598,Калужский,1039696501,"Россия, Москва, Профсоюзная улица, 61А",malls,Торговый центр,malls,"ежедневно, 10:00–22:00"
159,55.736493,37.712884,Monkey Dance Studio,198855331500,"Россия, Москва, Смирновская улица, 25, стр. 10",playground,"Спортплощадка, воркаут",sport,"ежедневно, 09:00–21:00"
160,55.718334,37.606784,Шаболовский,176090063696,"Россия, Москва, улица Шаболовка, 34, стр. 3",malls,Торговый центр,malls,"ежедневно, 09:00–22:00"
161,55.74674,37.626241,Бизнес инкубатор Зевс,1263223706,"Россия, Москва, улица Балчуг, 7",college,Бизнес-школа,business,"ежедневно, круглосуточно"
162,55.693099,37.622094,Ламаджо,26683307937,"Россия, Москва, Варшавское шоссе, 29",cafe,Кафе,cafe,"ежедневно, 11:00–23:00"
163,55.731794,37.611679,Pancho Villa,1372654778,"Россия, Москва, улица Большая Якиманка, 52, стр. 1",restaurants,Ресторан,cafe,пн-ср 11:00–23:00; чт-сб 11:00–05:00; вс 11:00–23:00
164,55.743253,37.562724,Nail Sunny,9087584003,"Россия, Москва, Киевская улица, 2",spa,Ногтевая студия,beauty,"ежедневно, 10:00–22:00"
165,55.730696,37.628371,Мейджик Бьюти,54592605719,"Россия, Москва, Валовая улица, 26",spa,Косметология,beauty,"ежедневно, 10:00–22:00"
166,55.715235,37.620531,Тылегенда,96224323013,"Россия, Москва, Мытная улица, 27",hairdressers,Барбершоп,beauty,"ежедневно, 11:00–22:00"
167,55.675958,37.506237,Реглет Копицентр,42214864790,"Россия, Москва, проспект Вернадского, 39А",printing services,Копировальный центр,services,"ежедневно, 08:00–21:00"
168,55.694256,37.591261,Предметная и рекламная фотостудия Advphoto,1062551302,"Россия, Москва, улица Карьер, 2А, стр. 1",fallback services,Фотостудия,services,пн-пт 10:00–20:00
169,55.675992,37.536895,Kitchen,19314786441,"Россия, Москва, улица Гарибальди, 6, корп. 1",cafe,Кафе,cafe,"ежедневно, 09:00–22:00"
170,55.738358,37.661563,Планета Недвижимости,212238317805,"Россия, Москва, Марксистская улица, 3, стр. 1",office service,Агентство недвижимости,services,"пн-пт 10:00–20:00; сб,вс 10:00–16:00"
171,55.727606,37.58109,Му-Му,1120046349,"Россия, Москва, Комсомольский проспект, 26",cafe,Кафе,cafe,пн-пт 08:00–23:00; сб 10:00–23:00; вс 10:00–22:00
172,55.749511,37.537083,Эффективные Бизнес Решения,18700321530,"Россия, Москва, Пресненская набережная, 12",office service,Бизнес-консалтинг,business,пн-пт 09:00–19:00
173,55.688673,37.540509,Baro,200427080338,"Россия, Москва, Ломоносовский проспект, 15",spa,Салон красоты,beauty,пн-сб 10:00–21:00
174,55.705564,37.634012,Тандыр House,46783597861,"Россия, Москва, Автозаводская улица, 24",cafe,Кафе,cafe,"ежедневно, 10:00–00:00"
175,55.694472,37.674014,#Farш,220974149954,"Россия, Москва, проспект Андропова, 1",restaurants,Ресторан,cafe,"ежедневно, 10:00–22:00"
176,55.704296,37.614587,Beauty Salone Art of Paradise,39793596558,"Россия, Москва, Духовской переулок, 17, стр. 10",spa,Салон красоты,beauty,"ежедневно, 10:00–22:00"
177,55.695347,37.546255,White Fox Cafe,216289690995,"Россия, Москва, Молодёжная улица, 6",cafe,Кафе,cafe,"ежедневно, 09:00–21:00"
178,55.682671,37.625343,Справедливая медицина,3737088905,"Россия, Москва, Нагатинская улица, 1, стр. 1",office service,Экспертиза,medicine,пн-пт 10:00–19:00
179,55.66114,37.508409,Maison de beaute,46418825060,"Россия, Москва, Ленинский проспект, 111, корп. 1",spa,Салон красоты,beauty,"ежедневно, 08:00–22:00"
180,55.723328,37.621211,Фотограф SD-Studio,1192292217,"Москва, ул. Люсиновская, 36",fallback services,Студия графического дизайна,services,"ежедневно, 09:00–23:00"
181,55.742163,37.504114,Горбушкин Двор,1218481775,"Россия, Москва, Багратионовский проезд, 7, корп. 3",malls,Торговый центр,malls,"ежедневно, 10:00–21:00"
182,55.679212,37.559652,Interoptika,133743919281,"Россия, Москва, Нахимовский проспект, 63",cafe,Кафе,cafe,"ежедневно, 09:00–21:00"
183,55.685551,37.583781,Naturel Studio Академическая,1207663622,"Россия, Москва, Новочерёмушкинская улица, 13",spa,Салон красоты,beauty,"ежедневно, 10:00–22:00"
184,55.690973,37.658689,Дватренера,85016752911,"Россия, Москва, Автозаводская улица, 23с931к5",fitness,Фитнес-клуб,sport,"пн-пт 08:00–22:00; сб,вс 09:00–18:00"
185,55.726184,37.608035,Студия красоты Татьяны Лялиной,175560471139,"Россия, Москва, Ленинский проспект, 3",spa,Салон красоты,beauty,пн-пт 10:00–00:00; сб круглосуточно; вс 10:00–00:00
186,55.743137,37.630598,Нотариус Файзулина Д. Ш.,101650398418,"Россия, Москва, Пятницкий переулок, 3, стр. 3",office service,Нотариусы,services,пн-пт 10:00–19:00
187,55.669724,37.512465,Рынок на Ленинском,187690249349,"Россия, Москва, Ленинский проспект, 108с1",supermarket,Рынок,cafe,"ежедневно, 09:00–23:00"
188,55.74549,37.627739,Fifochka NailArt,99461442893,"Россия, Москва, Пятницкая улица, 3/4с2",spa,Салон красоты,beauty,"ежедневно, 10:00–21:00"
189,55.681373,37.674718,Дом быта,197877911474,"Россия, Москва, Судостроительная улица, 17",fallback services,Ремонт обуви,services,"ежедневно, 10:00–21:00"
190,55.714884,37.752041,Секция косики каратэ,1835947851,"Россия, Москва, улица Васильцовский Стан, 6",fitness,"Спортивный клуб, секция",sport,пн 18:00–22:00; вт 16:00–22:00; ср 18:00–20:00; чт 16:00–22:00; вс 10:00–16:00
191,55.749399,37.537204,Rbs Rights Business Standard,146177673351,"Россия, Москва, Пресненская набережная, 12",office service,Бизнес-консалтинг,business,"ежедневно, 09:00–21:00"
192,55.701227,37.740938,Общественная организация спортивной направленности Школьный спортивный клуб Бадминтоник города Москвы,1393404252,"Россия, Москва, 1-я улица Текстильщиков, 16",fitness,"Спортивный клуб, секция",sport,"ежедневно, 08:00–21:00"
193,55.731597,37.624361,Brasserie Lambic,1770249382,"Россия, Москва, Пятницкая улица, 74, стр. 3",restaurants,Ресторан,cafe,"ежедневно, 12:00–00:00"
194,55.714229,37.626637,Гемма-данс,63601064159,"Россия, Москва, Павловская улица, 8А, корп. 1",college,Школа танцев,sport,вт-пт 13:30–22:00
195,55.721787,37.50822,Jarnsida,4174287615,"Россия, Москва, улица Довженко, 12, корп. 3",fitness,"Спортивный клуб, секция",sport,вс 12:00–16:00
196,55.731759,37.686437,Sтанция 2025,233049848105,"Россия, Москва, Михайловский проезд, 1, стр. 1",attraction,Развлекательный центр,entertainment,"пн-пт 13:00–22:00; сб,вс 11:00–22:00"
197,55.682651,37.661913,EMS & dance,1713861261,"Россия, Москва, проспект Андропова, 22",fitness,Фитнес-клуб,sport,"ежедневно, 09:00–21:00"
198,55.737645,37.635288,Black Nail,43377785496,"Россия, Москва, Большая Татарская улица, 35, стр. 3",spa,Салон красоты,beauty,"ежедневно, 10:00–22:00"
199,55.752053,37.595926,Спринта,1126472364,"Россия, Москва, улица Новый Арбат, 11",printing services,Полиграфические услуги,services,пн-пт 09:00–20:00
200,55.674036,37.581598,Слфк Ласточка,69252392617,"Россия, Москва, улица Кржижановского, 31",sportcenter,Спортивная школа,sport,"ср,сб,вс 11:00–18:00"
201,55.743233,37.585485,Правовой центр недвижимости,102153825176,"Россия, Москва, Смоленский бульвар, 24с2",office service,Агентство недвижимости,services,пн-пт 10:00–20:00
202,55.681509,37.74993,Меддобро,220156750012,"Россия, Москва, Краснодонская улица, 13, корп. 2",medicine,"Медцентр, клиника",medicine,пн-пт 09:00–21:00; сб 10:00–21:00; вс 10:00–20:00
203,55.735251,37.497674,Теннис Чемпион Парк Победы,119896359470,"Россия, Москва, улица Василисы Кожиной, 13",sportcenter,Спортивная школа,sport,"ежедневно, 08:00–21:00"
204,55.729164,37.688351,Детский Футбольный клуб Лев,141974394353,"Россия, Москва, Михайловский проезд, 3, стр. 14",fitness,"Спортивный клуб, секция",sport,"ежедневно, круглосуточно"
205,55.661884,37.509352,Весна,28970958454,"Россия, Москва, Ленинский проспект, 111, корп. 1",fitness,Фитнес-клуб,sport,"пн-пт 07:30–21:00; сб,вс 09:00–18:00"
206,55.670166,37.538495,Салон красоты Даниэль,1392651790,"Россия, Москва, улица Академика Пилюгина, 12А",spa,Салон красоты,beauty,"ежедневно, 10:00–21:00"
207,55.709625,37.723225,КопиСем,1067346916,"Россия, Москва, Волгоградский проспект, 42, корп. 7",printing services,Широкоформатная печать,services,пн-пт 09:30–18:00
208,55.739569,37.687767,Клиника Msk,1309223303,"Россия, Москва, Новорогожская улица, 22",medicine,"Медцентр, клиника",medicine,вт-сб 10:00–21:00
209,55.691334,37.552297,Распечатка.com,88474646698,"Россия, Москва, Ленинский проспект, 67",printing services,Копировальный центр,services,пн-сб 08:45–19:45
210,55.71025,37.67478,Фотоцентр Fujifilm,92635883315,"Россия, Москва, 7-я Кожуховская улица, 9",malls,Фотомагазин,services,"ежедневно, 10:00–22:00"
211,55.726632,37.627394,Реглет Копицентр,225897785776,"Россия, Москва, Стремянный переулок, 35",printing services,Копировальный центр,services,"пн-пт 09:00–21:00; сб,вс 10:00–18:00"
212,55.736733,37.729012,Barocco Studio,150811272986,"Россия, Москва, Андроновское шоссе, 26, стр. 9",fallback services,Аренда фотостудий,services,"ежедневно, 09:00–22:00"
213,55.672935,37.725873,Амазония,105382753930,"Россия, Москва, улица Полбина, 33А",fitness,Фитнес-клуб,sport,"ежедневно, круглосуточно"
214,55.708449,37.594102,Столовая +Лагман,131132908859,"Россия, Москва, улица Орджоникидзе, 11, стр. 1",cafe,Столовая,cafe,"пн-пт 09:00–17:00; сб,вс 12:00–18:00"
215,55.683061,37.666202,Салон TopLook Beauty Lab,97935023460,"Россия, Москва, проспект Андропова, 15",spa,Салон красоты,beauty,"ежедневно, 10:00–22:00"
216,55.75095,37.643615,Untitled,49729426260,"Россия, Москва, Яузский бульвар, 14/8",cafe,Кафе,cafe,"пн-чт 10:00–22:00; пт,сб 10:00–23:00; вс 10:00–22:00"
217,55.709307,37.626749,Project by smstretching,146016078706,"Россия, Москва, Холодильный переулок, 3, корп. 1, стр. 3",fitness,Фитнес-клуб,sport,"пн-пт 08:00–22:00; сб,вс 09:00–19:00"
218,55.748794,37.538566,Афимолл Сити,1053343558,"Россия, Москва, Пресненская набережная, 2",malls,Торговый центр,malls,"пн-чт 10:00–22:00; пт,сб 10:00–23:00; вс 10:00–22:00"
219,55.655409,37.572012,Бухарест,1087960794,"Россия, Москва, улица Каховка, 27",malls,Торговый центр,malls,"ежедневно, 11:00–22:00"
220,55.679915,37.641845,Фото на документы,35487884181,"Россия, Москва, Нагатинская улица, 15, корп. 1",fallback services,Фотоуслуги,services,"ежедневно, 10:00–21:00"
221,55.707428,37.582706,Wingscoffee,159353014906,"Россия, Москва, Ленинский проспект, 39/1",cafe,Кофейня,cafe,пн-сб 08:00–21:00; вс 09:00–21:00
222,55.730416,37.687659,Сеть,37688813054,"Россия, Москва, Михайловский проезд, 5",fallback fun,Квесты,entertainment,"ежедневно, 10:00–02:00"
223,55.688969,37.572621,Skynails,217059232068,"Россия, Москва, улица Дмитрия Ульянова, 19",spa,Ногтевая студия,beauty,"ежедневно, 09:30–21:30"
224,55.670163,37.567599,Нотариус Ищенко А. А.,49046540116,"Россия, Москва, Новочерёмушкинская улица, 57",office service,Нотариусы,services,"пн-пт 09:00–17:00, перерыв 13:00–14:00"
225,55.683168,37.680975,Фотосалон,188012880818,"Россия, Москва, Судостроительная улица, 29",fallback services,Фотоуслуги,services,пн-пт 10:00–20:00; сб 10:00–17:00; вс 10:30–18:00
226,55.731445,37.627544,Reshape Добрынинская,131388596122,"Россия, Москва, Пятницкая улица, 71/5с2",fitness,Фитнес-клуб,sport,"ежедневно, 07:30–22:00"
227,55.730167,37.625235,Питчер,117139805683,"Россия, Москва, Пятницкая улица, 82/34с1",bars,"Бар, паб",cafe,"пн-пт 12:00–23:00; сб,вс 14:00–23:00"
228,55.704145,37.615141,Лаборатория ДМА,1233970559,"Россия, Москва, Духовской переулок, 17, стр. 3",spa,Косметология,medicine,"пн-пт 10:00–21:00; сб,вс 10:00–18:00"
229,55.687099,37.567187,Клиника угрей и реабилитации кожи,1037516444,"Россия, Москва, улица Кедрова, 5, корп. 1",medicine,"Медцентр, клиника",medicine,"пн-пт 09:00–21:00; сб,вс 10:00–18:00"
230,55.670128,37.553368,Фотостиль,22691127703,"Россия, Москва, Профсоюзная улица, 56",fallback services,Фотоуслуги,services,"ежедневно, 10:00–21:00"
231,55.711448,37.683446,Arendagrad,222521890788,"Россия, Москва, Угрешская улица, 2, стр. 1",office service,Продажа готового бизнеса и франшиз,business,"ежедневно, 09:00–23:00"
232,55.721865,37.624264,Боди энд Маинд,242016262923,"Россия, Москва, Большая Серпуховская улица, 46, стр. 34",fitness,Фитнес-клуб,sport,"ежедневно, 10:00–20:00"
233,55.712315,37.654017,All For Business,166896189398,"Россия, Москва, улица Ленинская Слобода, 26, стр. 28",fallback services,Маркетинговые услуги,business,"ежедневно, 09:00–21:00"
234,55.706015,37.597441,Зал бокса клуба Moscowboxing на Ленинском проспекте,1783681418,"Россия, Москва, 5-й Донской проезд, 15, стр. 42",fitness,"Спортивный клуб, секция",sport,"ежедневно, 07:00–00:00"
235,55.733695,37.619943,Салон красоты The Nails,190316164513,"Россия, Москва, улица Большая Полянка, 43, стр. 3",spa,Салон красоты,beauty,"ежедневно, 10:00–22:00"
236,55.668447,37.746148,Баскетбольная академия Хаски,55367305688,"Россия, Москва, Краснодонская улица, 40",fitness,"Спортивный клуб, секция",sport,"вт,чт,сб круглосуточно"
237,55.736881,37.636362,Ручное Время,1006034366,"Россия, Москва, Большая Татарская улица, 35, стр. 4",printing services,Типография,services,пн-пт 09:00–18:00
238,55.744753,37.567207,Black Star Burger,57515535496,"Россия, Москва, площадь Киевского Вокзала, 2",fast food,Быстрое питание,cafe,"ежедневно, 11:00–23:00"
239,55.679813,37.564132,Дома пицца,156482563868,"Россия, Москва, Профсоюзная улица, 24, корп. 1",restaurants,Пиццерия,cafe,"ежедневно, 08:00–21:00"
240,55.73109,37.611717,Хлеб Насущный,37175603800,"Россия, Москва, улица Большая Якиманка, 52, стр. 1",confectionary,"Булочная, пекарня",cafe,пн-пт 07:00–21:00; сб 08:00–21:00; вс 08:00–20:00
241,55.747995,37.677905,Фитнес-клуб Kickstart Gym,19860672015,"Россия, Москва, улица Сергия Радонежского, 15-17с22",fitness,Фитнес-клуб,sport,"ежедневно, 08:00–23:00"
242,55.726181,37.675665,Woolfy Beauty Studio,55460176198,"Россия, Москва, улица Мельникова, 3, корп. 2",spa,Салон красоты,beauty,"ежедневно, 10:00–22:00"
243,55.707811,37.688575,Спортивная Секция Тхэквондо СК Икигай,151905079873,"Россия, Москва, Южнопортовая улица, 5, стр. 1",fitness,"Спортивный клуб, секция",sport,"ежедневно, круглосуточно"
244,55.731061,37.579445,Agat Beauty,94980974033,"Россия, Москва, Оболенский переулок, 9А",spa,Косметология,beauty,"ежедневно, 10:00–22:00"
245,55.749667,37.498783,Спортивный культурно-патриотический комплекс Фили,119243283279,"Россия, Москва, Новозаводская улица, 27А, стр. 1",fitness,Спортивный комплекс,sport,"ежедневно, 07:00–23:00"
246,55.684447,37.585772,Клиника Дентальной Медицины,1262211869,"Россия, Москва, улица Дмитрия Ульянова, 31",dental,Стоматологическая клиника,medicine,"ежедневно, 09:00–21:00"
247,55.744516,37.566133,Round 1,83829326264,"Россия, Москва, площадь Киевского Вокзала, 2",attraction,Развлекательный центр,entertainment,пн-чт 10:00–02:00; пт-вс 10:00–05:00
248,55.740238,37.658967,Центр заверения цифровой информации,94361233657,"Россия, Москва, Марксистская улица, 1, корп. 1",office service,Юридические услуги,services,пн-пт 10:00–18:30
249,55.675132,37.56501,Сеченовский Университет,195387179540,"Россия, Москва, Нахимовский проспект, 49",college,ВУЗ,medicine,пн-пт 09:00–18:00
250,55.727843,37.613908,La Provincia,1108736704,"Россия, Москва, Калужская площадь, 1к2",restaurants,Ресторан,cafe,"ежедневно, 10:00–00:00"
251,55.749179,37.5409,5 Element,132879024786,"Россия, Москва, Пресненская набережная, 2",fitness,Фитнес-клуб,sport,"пн-пт 07:00–00:00; сб,вс 08:00–00:00"
252,55.728275,37.613768,Фото на Октябрьской,1089074025,"Россия, Москва, Калужская площадь, 1, корп. 1",fallback services,Фотоуслуги,services,пн-пт 10:15–19:15
253,55.736093,37.718309,Бизнес для будущего,1333786820,"Россия, Москва, Авиамоторная улица, 50с2",software,Программное обеспечение,business,пн-пт 09:00–18:00
254,55.746375,37.658041,Lol-original.ru,87153770036,"Россия, Москва, Малый Дровяной переулок, 6",baby shop,Детские игрушки и игры,entertainment,"ежедневно, 10:00–21:00"
255,55.746986,37.642851,Фитнес студия Embody,10898064790,"Россия, Москва, Котельническая набережная, 1/15",fitness,Фитнес-клуб,sport,"пн-пт 08:00–21:00; сб,вс 08:00–19:00"
256,55.708083,37.600314,Power-Style,1377595717,"Россия, Москва, 5-й Донской проезд, 15, стр. 3",fitness,Фитнес-клуб,sport,"ежедневно, 10:00–22:00"
257,55.726882,37.625801,Антарис,1129867407,"Россия, Москва, Большая Серпуховская улица, 17, стр. 1",malls,Торговый центр,malls,"ежедневно, 09:00–21:00"
258,55.741046,37.609402,Музей восстания машин,114708252052,"Россия, Москва, Берсеневский переулок, 2с1",museum,Музей,entertainment,"ежедневно, 11:00–21:00"
259,55.734351,37.564982,Tamik Da Barber,59945084256,"Россия, Москва, Саввинская набережная, 19, стр. 1Б",hairdressers,Барбершоп,beauty,"ежедневно, 10:00–22:00"
260,55.744094,37.508457,Туса Джуса,131342150774,"Россия, Москва, Багратионовский проезд, 5",fallback services,Организация и проведение детских праздников,entertainment,"ежедневно, 10:00–22:00"
261,55.69707,37.61798,World Class,1096666632,"Россия, Москва, Варшавское шоссе, 12А",fitness,Фитнес-клуб,sport,"пн-пт 07:00–00:00; сб,вс 09:00–00:00"
262,55.664091,37.546255,Bodycontrology,56499896337,"Россия, Москва, Профсоюзная улица, 68, корп. 2",fitness,Фитнес-клуб,sport,"пн-чт 09:00–21:00; пт,сб 09:00–18:00"
263,55.690356,37.552903,Wellness Time,168109409514,"Россия, Москва, Ленинский проспект, 67, корп. 1",spa,Салон красоты,beauty,"ежедневно, 10:00–21:00"
264,55.743299,37.638359,Бизнес-школа Marketing One,119894119943,"Россия, Москва, улица Воздвиженка, 9",college,Курсы и мастер-классы,business,пн-пт 09:30–19:00
265,55.749633,37.537434,Mcity.ru,1800778102,"Россия, Москва, Пресненская набережная, 12",office service,Агентство недвижимости,services,"ежедневно, 09:00–20:00"
266,55.672754,37.548835,Частный доктор,1169168199,"Россия, Москва, улица Гарибальди, 19А",medicine,"Медцентр, клиника",medicine,пн-пт 08:00–20:00; сб 09:00–15:00
267,55.730436,37.580014,Stone Bridge estate,8904394846,"Россия, Москва, Оболенский переулок, 9, корп. 2",office service,Агентство недвижимости,services,"пн-пт 09:00–21:00; сб,вс 10:00–18:00"
268,55.661126,37.544273,Школа Бокса,149368791130,"Россия, Москва, Профсоюзная улица, 76",fitness,Спортивный комплекс,sport,"ежедневно, 10:00–22:00"
269,55.740639,37.538269,X-Body Light,66676993774,"Россия, Москва, Кутузовский проспект, 35",fitness,Фитнес-клуб,sport,"ежедневно, 10:00–22:00"
270,55.741807,37.65531,ПечатникЪ,1792178774,"Россия, Москва, Таганская улица, 1, стр. 1",printing services,Копировальный центр,services,"ежедневно, 10:00–20:00"
271,55.659712,37.749821,Бум,1029419582,"Россия, Москва, улица Перерва, 43, корп. 1",malls,Торговый центр,malls,"ежедневно, 10:00–22:00"
272,55.72082,37.609417,Фото-фреш,39933448687,"Россия, Москва, улица Шаболовка, 24",fallback services,Фотоуслуги,services,"пн-пт 09:00–20:00; сб,вс 10:00–19:00"
273,55.73348,37.712913,Триал-Спорт,25116852237,"Россия, Москва, Нижегородская улица, 29-33с4",malls,Спортивный магазин,sport,"ежедневно, 10:00–22:00"
274,55.713922,37.624126,Геномед,227594863059,"Россия, Москва, Подольское шоссе, 8",medicine,Медицинская лаборатория,medicine,пн-сб 08:00–19:00; вс 08:00–17:00
275,55.744475,37.649624,Печати,1284427228,"Россия, Москва, Верхняя Радищевская улица, 7, стр. 1",office service,Изготовление печатей и штампов,services,пн-пт 09:00–18:00
276,55.73657,37.522828,Фото-копи центр,116660334799,"Россия, Москва, площадь Победы, 1, корп. А",printing services,Копировальный центр,services,"пн-пт 09:00–20:00; сб,вс 10:00–20:00"
277,55.704184,37.668794,Нарцисс,54598597468,"Россия, Москва, улица Сайкина, 19",spa,Салон красоты,beauty,"ежедневно, 10:00–22:00"
278,55.691334,37.62104,Вино,62731885502,"Россия, Москва, Варшавское шоссе, 18, корп. 2",restaurants,Ресторан,cafe,"ежедневно, 12:00–23:00"
279,55.7322,37.620869,Naturel Studio Полянка,1191885127,"Россия, Москва, улица Большая Полянка, 51А/9",spa,Салон красоты,beauty,"ежедневно, 08:00–00:00"
280,55.720382,37.569255,Клуб айкидо Буюкан,71624158158,"Россия, Москва, улица Хамовнический Вал, 26",sportcenter,Спортивное объединение,sport,"ср,пт 16:00–17:00"
281,55.720696,37.600766,Территория,1067977972,"Россия, Москва, Ленинский проспект, 15А",spa,Салон красоты,beauty,"ежедневно, 10:00–22:00"
282,55.742058,37.597145,Агора Эстейт,227525757563,"Россия, Москва, Лопухинский переулок, 5, стр. 4",office service,Агентство недвижимости,services,пн-пт 10:00–19:00
283,55.672037,37.651681,Хлеб да обед,171978015332,"Россия, Москва, улица Академика Миллионщикова, 7, корп. 1",cafe,Столовая,cafe,"ежедневно, 09:00–22:00"
284,55.728319,37.61949,San Lasar,1321054298,"Россия, Москва, 3-й Добрынинский переулок, 3/5с2",medicine,"Медцентр, клиника",medicine,"ежедневно, 09:00–21:00"
285,55.738625,37.6412,Pro Брови Beauty Bar,210775917486,"Россия, Москва, Садовническая улица, 76/71с1",spa,Салон красоты,beauty,"ежедневно, 09:00–22:00"
286,55.707563,37.620743,Охота Мяса,26972233653,"Россия, Москва, Большая Тульская улица, 2",restaurants,Ресторан,cafe,"ежедневно, 12:00–23:00"
287,55.700877,37.622405,Интернешнл Пропети,221114409562,"Россия, Москва, Варшавское шоссе, 7, корп. 1-23",office service,Агентство недвижимости,services,"пн-пт 09:00–20:00; сб,вс 10:00–18:00"
288,55.711108,37.504708,Домокод,152038503397,"Россия, Москва, Мосфильмовская улица, 74Б",office service,Кадастровые работы,services,"ежедневно, 09:00–18:00, перерыв 13:00–14:00"
289,55.719564,37.628091,Ангар,1368708577,"Россия, Москва, Павловская улица, вл7",malls,Торговый центр,malls,"ежедневно, 09:00–21:00"
290,55.705934,37.739977,Фитнес,117906412719,"Россия, Москва, 11-я улица Текстильщиков, 2",fitness,"Спортивный, тренажёрный зал",sport,"ежедневно, 10:00–22:00"
291,55.712037,37.568659,Ласточка,166167751500,"Россия, Москва, Лужнецкая набережная",restaurants,Ресторан,cafe,"ежедневно, 12:00–00:00"
292,55.750753,37.595949,Руккола,1159465411,"Россия, Москва, улица Арбат, 19",cafe,Кафе,cafe,"ежедневно, 12:00–23:00"
293,55.743593,37.603397,Exect Business Training,1120833261,"Россия, Москва, Соймоновский проезд, 7, стр. 1",college,Тренинги,business,пн-пт 10:00–19:00
294,55.733605,37.591937,На свежую голову,56543473432,"Россия, Москва, улица Тимура Фрунзе, 8/5",hairdressers,Парикмахерская,beauty,"ежедневно, 10:00–22:00"
295,55.736341,37.640641,Point Coffee&Food,1379787835,"Россия, Москва, Садовническая набережная, 75",cafe,Кофейня,cafe,"пн-пт 08:00–22:00; сб,вс 09:00–22:00"
296,55.741326,37.609083,Msk CrossFit&Cycle,196269811584,"Россия, Москва, Берсеневская набережная, 8, стр. 1",fitness,"Спортивный клуб, секция",sport,"пн-пт 07:00–23:00; сб,вс 10:00–19:00"
297,55.75219,37.591879,Драйвпул,1690427473,"Россия, Москва, улица Новый Арбат, 15, стр. 1",attraction,Развлекательный центр,entertainment,"ежедневно, 12:00–20:00"
298,55.722048,37.690022,Центр прикладного рукопашного боя система Кадочникова,1800462038,"Россия, Москва, Волгоградский проспект, 32, корп. 8",fitness,"Спортивный клуб, секция",sport,"пн,ср,пт 19:00–21:00"
299,55.681042,37.60319,Юник Проперти,214910159109,"Россия, Москва, Нагорная улица, 18, корп. 4",office service,Агентство недвижимости,services,"ежедневно, 09:00–18:00"
300,55.701981,37.644923,ЦСКА Арена,1425831484,"Россия, Москва, Автозаводская улица, 23А",fitness,Спортивный комплекс,sport,пн-пт 09:00–18:00
301,55.738568,37.588952,Нотариус Фролова Т. В.,1115435898,"Россия, Москва, Зубовский бульвар, 16-20",office service,Нотариусы,services,"пн-чт 09:00–18:00, перерыв 13:00–14:00; пт 09:00–17:00, перерыв 13:00–14:00"
302,55.722713,37.679774,9 Bar Coffee,232058059230,"Россия, Москва, Новоостаповская улица, 5, стр. 14",cafe,Кофейня,cafe,"ежедневно, 08:00–22:00"
303,55.739548,37.527396,"Skuratov, coffee roasters",117700750363,"Россия, Москва, Кутузовский проспект, 36, стр. 39",cafe,Кофейня,cafe,"ежедневно, 06:55–22:05"
304,55.726934,37.62568,#Farш,1711517095,"Россия, Москва, Большая Серпуховская улица, 17с3",restaurants,Ресторан,cafe,"ежедневно, 10:00–23:00"
305,55.73481,37.66521,Родные земли,39224088639,"Россия, Москва, Марксистская улица, 34, корп. 8",office service,Продажа земельных участков,services,"ежедневно, 09:00–21:00"
306,55.672219,37.611518,Фото,120121304356,"Россия, Москва, Электролитный проезд, 16, корп. 1",fallback services,Фотоуслуги,services,пн-пт 10:00–20:00; сб 10:00–16:00
307,55.710285,37.610425,Nailtika Studio,202353503218,"Россия, Москва, улица Серпуховский Вал, 21, корп. 1",spa,Ногтевая студия,beauty,"ежедневно, 10:00–22:00"
308,55.686328,37.549257,Выбор Красоты,1132924434,"Россия, Москва, Ломоносовский проспект, 4, корп. 1",spa,Салон красоты,beauty,"ежедневно, 09:00–21:00"
309,55.708203,37.729988,Мост,1353980721,"Россия, Москва, Люблинская улица, 4, корп. 1А",malls,Торговый центр,malls,"ежедневно, круглосуточно"
310,55.70742,37.604735,Вита Мед,100711744897,"Россия, Москва, 4-й Верхний Михайловский проезд, 5",medicine,"Медцентр, клиника",medicine,пн-пт 09:00–19:00
311,55.682921,37.564512,Парикмахер-колорист Анна Смелянская,56688829858,"Россия, Москва, улица Кржижановского, 7, корп. 2",spa,Салон красоты,beauty,вт-сб 10:00–21:00
312,55.707541,37.512525,Электроника-Сервис,1231964259,"Россия, Москва, Ломоносовский проспект, 32/10",auto,Магазин автозапчастей и автотоваров,services,"пн-пт 09:30–19:00; сб,вс 10:00–18:00"
313,55.678707,37.634631,Ниармедик,102375768521,"Россия, Москва, 1-й Нагатинский проезд, 11, корп. 1",medicine,"Медцентр, клиника",medicine,пн-пт 08:00–21:00; сб 09:00–18:00
314,55.740652,37.636712,Салон красоты Ten Tone,14456632498,"Россия, Москва, Озерковская набережная, 22/24с1",spa,Салон красоты,beauty,"ежедневно, 10:00–21:00"
315,55.708841,37.598932,Энотера,188544219316,"Россия, Москва, улица Орджоникидзе, 9, корп. 2",medicine,Нетрадиционная медицина,medicine,вт-вс 12:00–21:00
316,55.740784,37.503601,The Вареники,127599178323,"Россия, Москва, улица Барклая, 8",cafe,Кафе,cafe,"ежедневно, 10:00–20:00"
317,55.681005,37.578979,Элис,154721969239,"Россия, Москва, Новочерёмушкинская улица, 25",fitness,Фитнес-клуб,sport,"пн-пт 07:00–00:00; сб,вс 09:00–22:00"
318,55.699111,37.634705,Coffeesphere,200347534334,"Россия, Москва, улица Архитектора Щусева, 2, корп. 2",cafe,Кофейня,cafe,"пн-пт 08:00–22:00; сб,вс 09:00–22:00"
319,55.729182,37.558297,У Пиросмани,1048639977,"Россия, Москва, Новодевичий проезд, 4",restaurants,Ресторан,cafe,"ежедневно, 12:00–22:30"
320,55.662776,37.515371,Романовская пекарня,46898375310,"Россия, Москва, Ленинский проспект, 107, корп. 2",confectionary,"Булочная, пекарня",cafe,"пн-пт 08:00–21:00; сб,вс 09:00–21:00"
321,55.737512,37.617248,Кафе Квартира 44,181341690685,"Россия, Москва, улица Малая Якиманка, 24",cafe,Кафе,cafe,"ежедневно, 12:00–00:00"
322,55.734096,37.678932,Фото на документы,1152909892,"Россия, Москва, улица Талалихина, 3, стр. 2",fallback services,Фотоуслуги,services,пн-пт 09:30–20:00; сб 10:00–18:00
323,55.674731,37.688093,Адмирал-ВМФ,1403539181,"Россия, Москва, Затонная улица, 22",fitness,"Спортивный клуб, секция",sport,"пн-чт 08:00–17:00, перерыв 12:30–13:15; пт 08:00–15:45, перерыв 12:30–13:15"
324,55.719442,37.608824,Французская пекарня SeDelice,141820308344,"Россия, Москва, улица Шаболовка, 30",confectionary,"Булочная, пекарня",cafe,"пн-пт 07:30–22:00; сб,вс 09:30–20:00"
325,55.720051,37.672198,Дринкит,54116617678,"Россия, Москва, Новоостаповская улица, 6/14",cafe,Кофейня,cafe,"ежедневно, 09:00–21:00"
326,55.690411,37.53442,Бэнтоки,165629124232,"Россия, Москва, проспект Вернадского, 9/10",cafe,Кафе,cafe,"ежедневно, 11:00–23:00"
327,55.740537,37.604807,Кафе,165188046792,"Россия, Москва, Курсовой переулок, 8/2",cafe,Кафе,cafe,пн-пт 08:00–20:00
328,55.748868,37.669773,Трапезная,125486392506,"Россия, Москва, Андроньевская площадь, 10, стр. 13",cafe,Кафе,cafe,"пн-пт 11:00–21:00; сб,вс 11:00–19:00"
329,55.726071,37.577903,Центр междисциплинарной стоматологии и неврологии,1023246482,"Россия, Москва, Комсомольский проспект, 32, корп. 2",dental,Стоматологическая клиника,medicine,пн-сб 09:00–21:00
330,55.744743,37.653703,Нотариус Крюкова Л. Н.,1129947878,"Россия, Москва, Тетеринский переулок, 18, стр. 2",office service,Нотариусы,services,"пн-ср 09:30–17:30, перерыв 13:00–14:00; чт 09:30–14:00"
331,55.671593,37.543661,"Ци - Йога, Цигун, Терапия",82204035022,"Россия, Москва, улица Архитектора Власова, 18",medicine,"Медцентр, клиника",medicine,"ежедневно, 10:00–22:00"
332,55.736731,37.712946,Sun Studio,127066266695,"Россия, Москва, Смирновская улица, 25, стр. 10",printing services,Широкоформатная печать,services,пн-пт 09:00–18:00
333,55.680649,37.663084,Хинкальная,1686674092,"Россия, Москва, проспект Андропова, 26",cafe,Кафе,cafe,"ежедневно, 11:00–23:00"
334,55.720945,37.697221,Метр квадратный,1134826985,"Россия, Москва, Волгоградский проспект, 32к25",malls,Торговый центр,malls,"ежедневно, 10:00–20:00"
335,55.730439,37.738193,Fitzal Карачарово,163903636354,"Россия, Москва, Рязанский проспект, 2, стр. 86",swimming pool,Бассейн,sport,"ежедневно, 06:00–00:00"
336,55.748143,37.540488,Продажа готового бизнеса,196261433933,"Россия, Москва, Пресненская набережная, 6, стр. 2",office service,Продажа готового бизнеса и франшиз,business,пн-пт 10:00–19:00
337,55.684254,37.573357,Московский клуб Ушу,107538481601,"Россия, Москва, улица Кедрова, 13, корп. 2",fitness,"Спортивный клуб, секция",sport,"пн,ср круглосуточно"
338,55.731941,37.61865,Doctor of Medicine,1170911431,"Россия, Москва, 2-й Спасоналивковский переулок, 3с1",office service,Бизнес-консалтинг,medicine,пн-пт 10:00–19:00
339,55.730071,37.670381,Центр восточной медицины,1037286138,"Россия, Москва, 1-я Дубровская улица, 1, корп. 4",medicine,"Медцентр, клиника",medicine,пн-пт 08:00–20:00; сб 09:00–18:00
340,55.727699,37.644333,Гао,61575876415,"Россия, Москва, Летниковская улица, 4, стр. 5",restaurants,Ресторан,cafe,"ежедневно, 11:00–22:00"
341,55.739564,37.637407,Aqua SPA,1206996216,"Россия, Москва, Озерковская набережная, 26",spa,Спа-салон,sport,"ежедневно, 07:00–23:00"
342,55.728828,37.580247,Моремания,238797908889,"Россия, Москва, Комсомольский проспект, 24, стр. 1",restaurants,Ресторан,cafe,"пн-чт 10:00–22:00; пт,сб 10:00–23:00; вс 10:00–22:00"
343,55.732241,37.58897,Гладстон,130981595774,"Россия, Москва, улица Льва Толстого, 5, стр. 1",office service,Продажа и аренда коммерческой недвижимости,services,"пн,вт,ср,пт 10:00–19:00"
344,55.759231,37.625035,Наутилус,1161562124,"Россия, Москва, Никольская улица, 25",malls,Торговый центр,malls,"ежедневно, 10:00–22:00"
345,55.734962,37.58146,Центр лечения онемений и боли,49251064891,"Россия, Москва, улица Россолимо, 11, стр. 1",medicine,"Медцентр, клиника",medicine,"ежедневно, 07:00–22:00"
346,55.698695,37.504873,Lak Lab nails & beauty,213382103205,"Россия, Москва, Мичуринский проспект, 21, корп. 4",spa,Ногтевая студия,beauty,"ежедневно, 10:00–22:00"
347,55.752141,37.592411,Росфинэкс,224204391456,"Россия, Москва, улица Новый Арбат, 15",office service,Финансовый консалтинг,services,пн-пт 10:00–21:00
348,55.731607,37.616007,World Class SPA,1732482249,"Россия, Москва, Житная улица, 14, стр. 2",spa,Салон красоты,beauty,"ежедневно, 10:00–22:00"
349,55.689517,37.588754,Занятия Тхэквон-До для детей,185077592626,"Россия, Москва, Новочерёмушкинская улица, 3",fitness,"Спортивный клуб, секция",sport,"ежедневно, 10:00–22:00"
350,55.72462,37.573761,Очаg,94808406561,"Россия, Москва, улица Ефремова, 12с2",restaurants,Ресторан,cafe,пн-пт 09:00–22:00
351,55.682734,37.662082,Colizeum Nora,58670874571,"Россия, Москва, проспект Андропова, 22",sportcenter,Киберспорт,entertainment,"ежедневно, круглосуточно"
352,55.73625,37.6312,Ялкорн Групп,1061466566,"Россия, Москва, Новокузнецкая улица, 20/21-19с5",office service,Агентство недвижимости,services,"пн-пт 09:00–19:00, перерыв 13:00–14:00"
353,55.723531,37.63553,Фотограф Александр Железнов,1382791930,"Россия, Москва, улица Щипок, 28",fallback services,Фотоуслуги,services,"ежедневно, 09:00–00:00"
354,55.74931,37.534445,Смотровая площадка Выше только любовь,62280411740,"Россия, Москва, 1-й Красногвардейский проезд, 21, стр. 2",viewpoint,Смотровая площадка,cafe,"пн-пт 12:00–23:00; сб,вс 10:00–23:00"
355,55.722826,37.621613,Beauty Code,1852327875,"Россия, Москва, Люсиновская улица, 36/50",spa,Салон красоты,beauty,"ежедневно, 09:00–21:00"
356,55.679245,37.687695,Затонка,1171123124,"Россия, Москва, Затонная улица, 11, корп. 2А",malls,Торговый центр,malls,"ежедневно, круглосуточно"
357,55.708511,37.658634,Нотариусы Штукатурова В. Н. и Ходневич Е. А.,1042656811,"Россия, Москва, улица Мастеркова, 3",office service,Нотариусы,services,пн-чт 10:00–18:00; пт 10:00–14:00
358,55.714325,37.670752,Кингс,133475211281,"Россия, Москва, 1-я улица Машиностроения, 10",fitness,"Спортивный клуб, секция",sport,"ежедневно, 09:00–21:00"
359,55.657383,37.63135,Fitness Mgm,1804731730,"Россия, Москва, Каширский проезд, 13, стр. 2",fitness,"Спортивный, тренажёрный зал",sport,"пн-пт 07:00–22:00; сб,вс 12:00–21:00"
360,55.714409,37.64551,Global Venture Alliance,148684457255,"Россия, Москва, Павелецкая набережная, 2с3",office service,Инвестиционная компания,business,пн-пт 10:00–19:00
361,55.703181,37.695041,Mavi,1396472491,"Россия, Москва, 2-й Южнопортовый проезд, 18, стр. 8",cafe,Кафе,cafe,пн-пт 11:00–23:00
362,55.682549,37.697191,Coffeesphere,213134690090,"Россия, Москва, Корабельная улица, 17к2",cafe,Кофейня,cafe,"пн-пт 08:00–22:00; сб,вс 09:00–22:00"
363,55.683021,37.618435,United Consulting Company,1223466552,"Россия, Москва, Варшавское шоссе, 28А",office service,Продажа готового бизнеса и франшиз,business,пн-пт 09:00–18:00
364,55.686594,37.567803,Kedr beauty,23808510269,"Россия, Москва, улица Кедрова, 5к1",spa,Салон красоты,beauty,"ежедневно, 10:00–21:00"
365,55.747082,37.657563,World Class,155988108713,"Россия, Москва, Николоямская улица, 36, стр. 1",fitness,Фитнес-клуб,sport,"пн-пт 07:00–00:00; сб,вс 09:00–00:00"
366,55.74938,37.591701,Гранд Энтертейнмент групп,144899636956,"Россия, город Москва, улица Арбат, 35",fallback services,Концертные и театральные агентства,entertainment,пн-пт 10:00–19:00
367,55.733423,37.522247,Спортклуб Прометей имени В. Д. Шкалова,54355539681,"Россия, Москва, Поклонная улица, 11, стр. 1А",fitness,"Спортивный клуб, секция",sport,"пн-пт 17:00–21:00; сб 10:00–21:00, перерыв 13:00–17:00"
368,55.727004,37.574552,BeautyClass Clinic,162665622195,"Россия, Москва, Трубецкая улица, 12",spa,Косметология,beauty,"ежедневно, 09:00–21:00"
369,55.746453,37.68212,Спринта,1373948986,"Россия, Москва, бульвар Энтузиастов",fallback services,Фотоуслуги,services,"пн-пт 09:00–20:00; сб,вс 09:30–18:30"
370,55.671529,37.517922,Кондитерская Олега Ильина,1192428004,"Россия, Москва, улица Удальцова, 1, корп. 1",confectionary,Кондитерская,cafe,"ежедневно, 09:00–21:00"
371,55.714353,37.6709,МСК Московская сеть кальянных,178917359890,"Россия, Москва, 1-я улица Машиностроения, 10",cafe,Кафе,cafe,"пн-пт 11:00–05:00; сб,вс 12:00–05:00"
372,55.719272,37.608715,Договор купли-продажи спецтехники,42907042459,"Россия, Москва, улица Шаболовка, 30",office service,Регистрация и ликвидация предприятий,services,"ежедневно, 08:00–00:00"
373,55.71199,37.620674,Injir,97582944559,"Россия, Москва, Мытная улица, 74",confectionary,Кондитерская,cafe,"ежедневно, 09:00–21:00"
374,55.668975,37.623659,Торговый комплекс,1062735491,"Россия, Москва, Варшавское шоссе, 46А, стр. 4",malls,Торговый центр,malls,"ежедневно, 09:00–19:00"
375,55.734628,37.592042,СК Лидер,4761676392,"Россия, Москва, Зубовский бульвар, 5, стр. 1",fitness,"Спортивный клуб, секция",sport,пн-пт 14:00–22:00
376,55.691273,37.620186,"Печать, ксерокс",137519919542,"Россия, Москва, Варшавское шоссе, 18, корп. 2",printing services,Копировальный центр,services,"ежедневно, 09:00–20:00"
377,55.709112,37.656326,Максима кафе,224158119776,"Россия, Москва, улица Мастеркова, 4",cafe,Кафе,cafe,"ежедневно, 07:00–23:00"
378,55.744803,37.555191,Центр Подологии и Маникюра,80521423153,"Россия, Москва, Платовская улица, 4",medicine,"Медцентр, клиника",beauty,"ежедневно, 07:00–23:00"
379,55.742975,37.598303,Pro Trener,1253105439,"Россия, Москва, Всеволожский переулок, 2, стр. 2",fitness,Фитнес-клуб,sport,"ежедневно, 07:00–23:00"
380,55.727491,37.608877,Business-class,1762583319,"Россия, Москва, Ленинский проспект, 4, стр. 1А",office service,Бизнес-консалтинг,business,пн-сб 09:00–18:00
381,55.72778,37.6016,Garage,1098250265,"Россия, Москва, улица Крымский Вал, 9, стр. 32",cafe,Кафе,cafe,"ежедневно, 11:00–22:00"
382,55.688352,37.596484,EUROSPAR,68778965058,"Россия, Москва, Большая Черёмушкинская улица, 11, корп. 3",supermarket,Супермаркет,cafe,"ежедневно, круглосуточно"
383,55.739847,37.618653,Baci Abbracci,123305489778,"Россия, Москва, Старомонетный переулок, 18",restaurants,Ресторан,cafe,"ежедневно, 12:00–23:00"
384,55.743279,37.599756,Центр китайской медицины Тао,1054154400,"Россия, Москва, улица Остоженка, 8, стр. 3",medicine,Нетрадиционная медицина,medicine,"ежедневно, 09:00–21:00"
385,55.743928,37.582833,Нотариус А.Б. Милешин,70303729378,"Россия, Москва, Смоленская-Сенная площадь, 23/25",office service,Нотариусы,services,пн-чт 10:00–19:00; пт 10:00–18:00; сб 11:00–15:00
386,55.680681,37.643264,Full Power Fit,45493352068,"Россия, Москва, Нагатинская улица, 15, корп. 3",fitness,Фитнес-клуб,sport,пн-сб 12:00–22:00
387,55.680742,37.514563,Клиника АВС-медицина,14392014697,"Россия, Москва, проспект Вернадского, 33",medicine,Детская поликлиника,medicine,пн-пт 08:00–21:00; сб 08:00–15:00; вс 09:00–16:00
388,55.749598,37.536625,Бизнес-планы,112412967146,"Россия, Москва, Пресненская набережная, 12",office service,Бизнес-консалтинг,business,"ежедневно, 07:00–22:00"
389,55.733792,37.626097,Нотариус Антропова И. Б.,1073405679,"Россия, Москва, улица Малая Ордынка, 29АС2",office service,Нотариусы,services,пн-пт 10:00–18:00
390,55.725067,37.653712,Жаворонки,1291777575,"Россия, Москва, Дербеневская улица, 1, стр. 1",office service,Агентство недвижимости,services,"ежедневно, 10:00–21:00"
391,55.709464,37.62493,Проект Ножницы и Кисточки,133410787152,"Россия, Москва, Холодильный переулок, 3, корп. 1, стр. 17",spa,Салон красоты,beauty,"ежедневно, 11:00–22:00"
392,55.749334,37.579178,Территория стиля Неотерик 1,70087791294,"Россия, Москва, 1-й Смоленский переулок, 21",spa,Салон красоты,beauty,"ежедневно, 09:00–21:00"
393,55.718334,37.606784,Бэст Виктори,6375635692,"Россия, Москва, улица Шаболовка, 34",office service,Агентство недвижимости,services,"ежедневно, 10:00–18:00"
394,55.744145,37.703723,Каратэ Спорт,189289657719,"Россия, Москва, Перовский проезд, 9",fitness,"Спортивный клуб, секция",sport,"ежедневно, круглосуточно"
395,55.707821,37.671919,Шахматная школа Олимп,1076948994,"Россия, Москва, 6-я Кожуховская улица, 11, корп. 2",fitness,"Спортивный клуб, секция",sport,"пн,ср,чт,пт 15:00–20:00"
396,55.697711,37.62528,Palmira Business Club,1578390320,"Россия, Москва, Новоданиловская набережная, 6, корп. 2",hotels,Гостиница,business,"ежедневно, круглосуточно"
397,55.703859,37.626043,КОФЕПОРТ,1177899454,"Россия, Москва, Варшавское шоссе, 1, стр. 2",cafe,Кофейня,cafe,пн-пт 08:00–18:30
398,55.727298,37.633476,Орион,1110947216,"Россия, Москва, Большая Пионерская улица, 24",sportcenter,Спортивно-развлекательный центр,entertainment,пн-пт 10:00–22:00
399,55.747907,37.566901,Одесса-мама,9575106155,"Россия, Москва, Украинский бульвар, 7",cafe,Кафе,cafe,"ежедневно, 11:00–22:30"
400,55.661013,37.555795,Новые Бизнес Системы,6889151469,"Россия, Москва, улица Намёткина, 14, корп. 2",office service,Бизнес-консалтинг,business,пн-пт 10:00–19:00
401,55.73441,37.663081,Центр народной медицины и гомеопатии,122337274482,"Россия, Москва, Воронцовская улица, 35Б, корп. 1",medicine,Нетрадиционная медицина,medicine,"пн-пт 09:00–23:00; сб,вс 09:00–21:00"
402,55.713441,37.721292,Konstanta-studio,120291097151,"Россия, Москва, Волгоградский проспект, 45",fallback services,Аренда фотостудий,services,"ежедневно, круглосуточно"
403,55.736938,37.644453,Клаустрофобия,1335577223,"Россия, Москва, Космодамианская набережная, 46/50",fallback fun,Квесты,entertainment,"ежедневно, 08:00–23:00"
404,55.712038,37.62007,Щепка,47715692851,"Россия, Москва, Мытная улица, 74",cafe,Кафе,cafe,"ежедневно, 09:00–21:00"
405,55.708541,37.587039,Wow Beauty Ресницы & Ногти,9249701094,"Россия, Москва, Ленинский проспект, 37А",spa,Салон красоты,beauty,"ежедневно, 10:00–22:00"
406,55.708653,37.656676,Фото-копировальный центр Копирка,1260600008,"Россия, Москва, улица Мастеркова, 4",printing services,Копировальный центр,services,"пн-пт 09:00–21:00; сб,вс 10:00–19:00"
407,55.708838,37.622419,Мультифото,1280595141,"Россия, Москва, Большая Тульская улица, 13",fallback services,Фотоуслуги,services,"ежедневно, 10:00–22:00"
408,55.705085,37.638885,Little Star&Happy City,34015685187,"Россия, Москва, Автозаводская улица, 18",attraction,Развлекательный центр,entertainment,"ежедневно, 10:00–22:00"
409,55.70634,37.596246,Homesoverseas,1241246747,"Россия, Москва, улица Орджоникидзе, 11, стр. 11",software,Интернет-маркетинг,services,пн-пт 10:00–19:00
410,55.707491,37.626493,S&i Fitness,18282716049,"Россия, Москва, Гамсоновский переулок, 2",fitness,Фитнес-клуб,sport,"ежедневно, 09:00–21:00"
411,55.705797,37.656353,Типография,99999411299,"Россия, Москва, Автозаводская улица, 13/1",fallback services,Фотоуслуги,services,пн-пт 09:00–19:00; сб 10:00–16:00
412,55.752105,37.588916,Юпитер,16371800545,"Россия, Москва, улица Новый Арбат, 19с1",fallback services,Фотоуслуги,services,"пн-пт 10:00–21:00; сб,вс 11:00–20:00"
413,55.703368,37.691441,The Shampoo Lounge,115081052687,"Россия, Москва, 2-й Южнопортовый проезд, 16, стр. 8",spa,Салон красоты,beauty,пн-пт 10:00–18:00
414,55.729447,37.67758,Фитнес тренировки,198972406003,"Россия, Москва, Волгоградский проспект, 15",fitness,"Спортивный, тренажёрный зал",sport,"ежедневно, 10:00–22:00"
415,55.707989,37.599705,Фотосейл,1053560343,"Россия, Москва, 5-й Донской проезд, 15, стр. 3",malls,Фотомагазин,services,"пн-пт 10:00–20:00; сб,вс 10:00–18:00"
416,55.705011,37.581289,Международная Ассоциация Исламского Бизнеса,99258567099,"Россия, Москва, проспект 60-летия Октября, 5к1",office service,Бизнес-консалтинг,business,пн-пт 09:00–18:00
417,55.706459,37.614268,Евроонко,1138930279,"Россия, Москва, Духовской переулок, 22Б",medicine,"Медцентр, клиника",medicine,"ежедневно, круглосуточно"
418,55.751396,37.565722,Фитнес-клуб Royal Wellness Club,52074271443,"Россия, Москва, Кутузовский проспект, 2/1с1",fitness,Фитнес-клуб,sport,"пн-пт 07:00–00:00; сб,вс 08:00–00:00"
419,55.703581,37.661078,Грот,1118221875,"Россия, Москва, улица Трофимова, 1/17",spa,Сауна,sport,"ежедневно, круглосуточно"
420,55.773576,37.594401,Медицина,1024966831,"Россия, Москва, 2-й Тверской-Ямской переулок, 10",medicine,"Медцентр, клиника",medicine,пн-пт 08:00–21:00; сб 09:00–19:00; вс 09:00–15:00
421,55.738307,37.614563,Novikov school,150526374858,"Россия, Москва, улица Большая Якиманка, 22",college,Курсы и мастер-классы,cafe,"ежедневно, 08:30–22:00"
422,55.664472,37.599238,Единое Окно для Бизнеса,127358551303,"Россия, Москва, Одесская улица, 2, корп. А",office service,Бизнес-консалтинг,business,пн-пт 09:00–20:00
423,55.65564,37.584272,Общественный принтер PrintBox,38869597472,"Россия, Москва, Керченская улица, 1Ак1",printing services,Типография,services,"ежедневно, 06:00–23:00"
424,55.727109,37.609716,Шашлык хаус,1105518543,"Россия, Москва, Ленинский проспект, 1/2к1",cafe,Кафе,cafe,"пн-пт 11:00–23:00; сб,вс 12:00–23:00"
425,55.709946,37.597949,Конфетти,1087884828,"Россия, Москва, улица Орджоникидзе, 9, корп. 1",spa,Салон красоты,beauty,"ежедневно, 10:00–22:00"
426,55.717016,37.623175,Urban Kitchen,60809360069,"Россия, Москва, Люсиновская улица, 55",restaurants,Ресторан,cafe,"ежедневно, 11:00–00:00"
427,55.693992,37.554457,Мир фото,1034513457,"Россия, Москва, Ленинский проспект, 62/1",fallback services,Фотоуслуги,services,пн-пт 09:00–21:00; сб 10:00–20:00; вс 10:00–18:00
428,55.747836,37.706952,Город,1049720078,"Россия, Москва, шоссе Энтузиастов, 12, корп. 2",malls,Торговый центр,malls,"ежедневно, 08:00–22:00"
429,55.721854,37.610672,Wurstbar,211592394909,"Россия, Москва, улица Шаболовка, 29, корп. 2",cafe,Кафе,cafe,"ежедневно, 12:00–23:00"
430,55.731257,37.669288,Агентство недвижимости Владис,71690604674,"Россия, Москва, Волгоградский проспект, 2",office service,Агентство недвижимости,services,"ежедневно, 09:00–21:00"
431,55.747186,37.631622,Pafos,1149062428,"Россия, Москва, Садовническая улица, 13, стр. 12",spa,Салон красоты,beauty,"ежедневно, 10:00–22:00"
432,55.668355,37.559937,Кофе для души,8136964460,"Россия, Москва, улица Гарибальди, 36",cafe,Кофейня,cafe,"ежедневно, 08:00–20:00"
433,55.680615,37.563255,Медичи,45115788945,"Россия, Москва, Профсоюзная улица, 24, корп. 2",spa,Салон красоты,beauty,"ежедневно, 10:00–22:00"
434,55.742189,37.684596,Клуб боевых искусств и Йоги,153836958664,"Россия, Москва, Рабочая улица, 30, стр. 1",fitness,"Спортивный клуб, секция",sport,"пн-пт 09:00–22:00; сб,вс 09:00–18:00"
435,55.740415,37.530487,Атлас,1226068664,"Россия, Москва, Кутузовский проспект, 34, стр. 14",medicine,"Медцентр, клиника",medicine,пн-пт 08:00–21:00; сб 09:00–21:00; вс 10:00–16:00
436,55.7113,37.612119,Фрау Шнапсбир,1250484336,"Россия, Москва, улица Серпуховский Вал, 17",bars,"Бар, паб",cafe,"ежедневно, 12:00–00:00"
437,55.707963,37.680993,Point 242,62609056617,"Россия, Москва, улица Петра Романова, 6",cafe,Кофейня,cafe,"пн-пт 08:00–21:00; сб,вс 09:00–21:00"
438,55.739474,37.596881,Express Nails,66768338366,"Россия, Москва, улица Остоженка, 25",spa,Салон красоты,beauty,"ежедневно, 09:00–22:00"
439,55.711082,37.667312,Копиркин,125970721790,"Россия, Москва, Велозаводская улица, 11/1",printing services,Копировальный центр,services,вт-вс 10:00–21:00
440,55.672583,37.542277,Перец&Мята,1359727679,"Россия, Москва, улица Академика Пилюгина, 4",cafe,Кафе,cafe,"ежедневно, 12:00–23:00"
441,55.748452,37.660952,Venice Beauty Club by Nikolaeva,146740036917,"Россия, Москва, Николоямский переулок, 4/6с3",spa,Салон красоты,beauty,"ежедневно, 10:00–21:00"
442,55.68324,37.555311,Beauty Doctor,1073496135,"Россия, Москва, Нахимовский проспект, 56",spa,Пластическая хирургия,beauty,пн-сб 09:00–21:00
443,55.674449,37.504649,Премьер,1059231340,"Россия, Москва, проспект Вернадского, 41, стр. 3",malls,Торговый центр,malls,пн-сб 09:00–21:00; вс 10:00–20:00
444,55.727575,37.622501,SeDelice - французская пекарня,16061114759,"Россия, Москва, Люсиновская улица, 4",confectionary,"Булочная, пекарня",cafe,пн-пт 07:00–21:00; сб 08:00–21:00; вс 09:00–21:00
445,55.692819,37.583856,Стрижем-наращиваем,1003268211,"Россия, Москва, улица Шверника, 8/1к1",spa,Салон красоты,beauty,"ежедневно, 09:00–21:00"
446,55.680909,37.696575,Элемента,52881815717,"Россия, Москва, Коломенская улица, 12, корп. 1",fitness,Центр йоги,sport,"пн-пт 06:30–23:00; сб,вс 09:30–20:00"
447,55.689062,37.615172,Инпромед,1047214608,"Россия, Москва, Нагорный проезд, 6, стр. 5",office service,Управляющая компания,medicine,пн-пт 08:00–20:00
448,55.734112,37.663141,Брайден консалтинг,1509687819,"Россия, Москва, Воронцовская улица, 35Б, корп. 2",office service,Регистрация и ликвидация предприятий,business,пн-пт 10:00–19:00
449,55.712167,37.612483,Салон красоты Pacho,136763353521,"Россия, Москва, улица Серпуховский Вал, 20",spa,Салон красоты,beauty,"ежедневно, 10:00–22:00"
450,55.679945,37.625289,Trigger Bar,50435492498,"Россия, Москва, Варшавское шоссе, 45",bars,"Бар, паб",cafe,пн-пт 11:00–23:00
451,55.724497,37.642273,Оранж Фитнес Павелецкая,12812715775,"Россия, Москва, Летниковская улица, 10, стр. 5",fitness,Фитнес-клуб,sport,"пн-пт 07:00–23:00; сб,вс 09:00–23:00"
452,55.687145,37.545083,Ломоносов,46653755361,"Россия, Москва, Ленинский проспект, 75/9",restaurants,Ресторан,cafe,"пн-пт 09:30–00:00; сб,вс 12:00–00:00"
453,55.658992,37.509703,Детское шоу,15044582516,"Россия, Москва, улица Обручева, 6, корп. 3",attraction,Развлекательный центр,entertainment,"ежедневно, круглосуточно"
454,55.741754,37.634236,Нексиа Пачоли Консалтинг,1209708840,"Россия, Москва, Большая Татарская улица, 7, корп. 2",office service,Бизнес-консалтинг,business,пн-пт 09:00–18:00
455,55.728368,37.745295,Теннис Парк,1097468252,"Россия, Москва, Рязанский проспект, 4",fitness,Спортивный комплекс,sport,"ежедневно, 07:00–00:00"
456,55.730213,37.635916,Hays,1338938522,"Россия, Москва, Павелецкая площадь, 2, стр. 2",office service,Кадровое агентство,business,пн-пт 09:30–18:30
457,55.686594,37.567803,Kedr beauty,173511063090,"Россия, Москва, улица Кедрова, 5к1",spa,Салон красоты,beauty,"ежедневно, 10:00–21:00"
458,55.748089,37.540524,Центральный институт дерматокосметологии,121469441812,"Россия, Москва, Пресненская набережная, 6с2",medicine,"Медцентр, клиника",medicine,"ежедневно, 10:00–22:00"
459,55.717843,37.603227,Евромедпрестиж,1082531699,"Россия, Москва, Донская улица, 28",medicine,"Медцентр, клиника",medicine,пн-пт 09:00–20:00; сб 09:00–19:00; вс 10:00–18:00
460,55.747231,37.583463,Лайн — Автоматизация бизнеса,71408775872,"Россия, Москва, улица Арбат, 54/2с1",software,Программное обеспечение,business,"ежедневно, 09:00–21:00"
461,55.723383,37.606857,Саяны,138769054766,"Россия, Москва, Донская улица, 8, корп. 2",cafe,Кафе,cafe,пн-пт 11:00–17:00
462,55.735221,37.663279,BiCO,1182710833,"Россия, Москва, Марксистская улица, 34, корп. 4",office service,Организация аукционов и тендеров,business,пн-пт 09:00–18:00
463,55.75187,37.59264,Лабиринт страха,206439302200,"Россия, Москва, улица Новый Арбат, 15, стр. 1",attraction,Развлекательный центр,entertainment,"ежедневно, 12:00–00:00"
464,55.678042,37.630966,Ньютон Арена,1764818287,"Россия, Москва, 1-й Нагатинский проезд, 10, стр. 3",fitness,Спортивный комплекс,cafe,"пн-пт 07:00–00:00; сб,вс 09:00–00:00"
465,55.716815,37.644903,AVAstudio,162888456475,"Россия, Москва, Павелецкая набережная, 2, стр. 2",fallback services,Видеопроизводство,services,"ежедневно, 09:00–19:00"
466,55.700324,37.625046,Starbucks,1305481649,"Россия, Москва, Варшавское шоссе, 9, стр. 1А",cafe,Кофейня,cafe,пн-пт 08:00–20:00; сб 10:30–16:00
467,55.691021,37.658825,Ngon,128047154424,"Россия, Москва, Автозаводская улица, 23, корп. 5, стр. 931",cafe,Кафе,cafe,"ежедневно, 10:00–20:00"
468,55.688515,37.547191,Kuzina,69156959410,"Россия, Москва, Ленинский проспект, 73/8",confectionary,Кондитерская,cafe,"ежедневно, 08:00–21:00"
469,55.731028,37.633649,Шоколадница,1258966785,"Россия, Москва, Валовая улица, 6",cafe,Кофейня,cafe,"пн-чт 07:00–23:00; пт 07:00–00:00; сб,вс 09:00–23:00"
470,55.726639,37.645959,Эф-инжиниринг,91815172436,"Россия, Москва, 1-й Кожевнический переулок, 6, стр. 1",fallback services,Инжиниринг,business,пн-пт 10:00–18:00
471,55.742012,37.583866,Brisket BBQ,219991452624,"Россия, Москва, Смоленский бульвар, 15",restaurants,Ресторан,cafe,"ежедневно, 12:00–00:00"
472,55.684453,37.695559,Салон красоты Имидж-студия Юлии Постанюк,69795412009,"Россия, Москва, Корабельная улица, 11, корп. 1",spa,Салон красоты,beauty,"ежедневно, 09:00–21:00"
473,55.676375,37.536087,Beauty Terra,25005422227,"Россия, Москва, улица Гарибальди, 6, корп. 1",spa,Салон красоты,beauty,"ежедневно, 10:00–21:00"
474,55.716351,37.576084,Logovo,115816046903,"Россия, Москва, улица Хамовнический Вал, 2",restaurants,Ресторан,cafe,"ежедневно, 11:00–23:00"
475,55.73548,37.625337,Квартира 44,205172954304,"Россия, Москва, улица Малая Ордынка, 24",cafe,Кафе,cafe,пн-сб 12:00–00:00; вс 12:00–23:00
476,55.658388,37.567195,Свобода в движении,140526435968,"Россия, Москва, улица Каховка, 20А",fitness,Спортивный комплекс,sport,"ежедневно, 09:00–21:00"
477,55.727506,37.621687,Клиникмид,1294472245,"Россия, Москва, 1-й Люсиновский переулок, 3Б",medicine,"Медцентр, клиника",medicine,пн-пт 08:00–20:00; сб 09:00–18:00
478,55.740153,37.525989,All Events - все бизнес события,1049103675,"Россия, Москва, Кутузовский проспект, 36, стр. 3",software,Информационный интернет-сайт,business,"пн-пт 10:00–19:00, перерыв 14:00–15:00"
479,55.684079,37.582792,Печорин,46250857755,"Россия, Москва, Новочерёмушкинская улица, 17",confectionary,"Булочная, пекарня",cafe,"ежедневно, 08:00–21:00"
480,55.739297,37.527146,Институт Остеопатии и Метавитоники Э. М. Нейматова,1795132963,"Россия, Москва, Кутузовский проспект, 36с3",medicine,Нетрадиционная медицина,medicine,"ежедневно, 10:00–20:00"
481,55.704093,37.615327,G Studio,224157043600,"Россия, Москва, Духовской переулок, 17А",spa,Ногтевая студия,beauty,"ежедневно, 10:00–22:00"
482,55.709745,37.654894,Салон красоты Кто такая,164467643851,"Россия, Москва, улица Ленинская Слобода, 26",spa,Салон красоты,beauty,"ежедневно, 10:00–22:00"
483,55.750549,37.593281,Студия красоты МаЛи,65312031335,"Россия, Москва, улица Арбат, 20",spa,Салон красоты,beauty,"ежедневно, 10:00–21:00"
484,55.691278,37.730248,Мои Фотоуслуги,46057281651,"Россия, Москва, улица Полбина, 6",fallback services,Фотоуслуги,services,"пн-пт 09:00–20:00; сб,вс 10:00–18:00"
485,55.724059,37.609559,Патриот,49778590244,"Россия, Москва, улица Шаболовка, 10, корп. 1",cafe,Столовая,cafe,пн-пт 08:30–18:00
486,55.73648,37.645086,Sunny Gym,1092173619,"Россия, Москва, Космодамианская набережная, 46/50",fitness,Фитнес-клуб,sport,"пн-пт 07:00–23:00; сб,вс 09:00–21:00"
487,55.661283,37.627759,Progressstudio,116597972394,"Россия, Москва, Старокаширское шоссе, 2, корп. 2",fitness,"Спортивный, тренажёрный зал",sport,пн-пт 08:00–22:00; сб 08:00–17:00
488,55.706794,37.581697,Ногтевая студия Avalanj,156667500922,"Россия, Москва, Ленинский проспект, 39/1",spa,Ногтевая студия,beauty,"ежедневно, 10:00–21:00"
489,55.744379,37.595781,Эларджи,1204117958,"Россия, Москва, Гагаринский переулок, 15А",restaurants,Ресторан,cafe,"ежедневно, 11:00–00:00"
490,55.741598,37.663884,Кафе Buta House,20783850306,"Россия, Москва, Большой Факельный переулок, 12",cafe,Кафе,cafe,"пн-пт 08:00–23:00; сб,вс 09:00–23:00"
491,55.689956,37.565778,Салон красоты Nail Point,1344124288,"Россия, Москва, улица Дмитрия Ульянова, 8, корп. 1",spa,Салон красоты,beauty,"ежедневно, 10:00–21:00"
492,55.73028,37.627091,Jawsspot,66540118125,"Россия, Москва, Валовая улица, 28",bars,"Бар, паб",cafe,"пн-чт 15:00–00:00; пт,сб 15:00–02:00; вс 15:00–00:00"
493,55.702769,37.651672,Правило Кадуцей,1320234024,"Россия, Москва, Автозаводская улица, 21",medicine,Оздоровительный центр,sport,"ежедневно, 09:00–22:00"
494,55.700892,37.737183,КвартиркиТут,60020050404,"Россия, Москва, улица Артюхиной, 8/10",office service,Гостиничный оператор,services,"ежедневно, 10:00–18:00"
495,55.741298,37.598339,Нотариус Муравлева И. Н.,1075111620,"Россия, Москва, улица Остоженка, 20",office service,Нотариусы,services,"пн-чт 10:00–17:00, перерыв 13:30–14:30; пт 10:00–15:00"
496,55.657672,37.529412,Группа Компаний Пантеон,205231104807,"Россия, Москва, улица Обручева, 23к3",office service,Кадастровые работы,services,"ежедневно, 09:00–20:00"
497,55.72307,37.703721,ФотоКопир,105018828873,"Россия, Москва, Остаповский проезд, 3, стр. 10",printing services,Полиграфические услуги,services,"пн-пт 09:00–19:00, перерывы 12:00–12:30, 16:30–17:00"
498,55.722294,37.621534,Юнит,216725292693,"Россия, Москва, Люсиновская улица, 36/50",office service,Продажа земельных участков,services,"ежедневно, 10:00–20:00"
499,55.691755,37.622369,The Best Burgers,227515558398,"Россия, Москва, Варшавское шоссе, 33, стр. 12",fast food,Быстрое питание,cafe,"ежедневно, 09:00–22:00"
500,55.742646,37.663381,Булочные Фокина,22772473542,"Россия, Москва, Большой Факельный переулок, 3, стр. 2",confectionary,"Булочная, пекарня",cafe,"ежедневно, 08:00–22:00"
501,55.71081,37.610266,Diamond,46341786311,"Россия, Москва, улица Серпуховский Вал, 21, корп. 1",hairdressers,Барбершоп,beauty,"ежедневно, 10:00–22:00"
502,55.677498,37.63463,Салон красоты Sky Royal,1566059404,"Россия, Москва, 1-й Нагатинский проезд, 11, корп. 2",spa,Салон красоты,beauty,"ежедневно, 10:00–22:00"
503,55.704208,37.616048,The Kudri Club,73474239656,"Россия, Москва, Духовской переулок, 17А",spa,Салон красоты,beauty,"ежедневно, 10:00–22:00"
504,55.674709,37.592848,Floribone,34016908839,"Россия, Москва, Нагорный бульвар, 3",flower shop,Доставка цветов и букетов,cafe,"ежедневно, 10:00–20:00"
505,55.713755,37.593201,Клуб изучения Будзинкан Будо Тайдзюцу Ниндзюцу Kuma,1380455907,"Россия, Москва, улица Стасовой, 4",fitness,"Спортивный клуб, секция",sport,"сб,вс 11:30–14:00"
506,55.692597,37.606918,Real-Fitness,1770689631,"Россия, Москва, Загородное шоссе, 9, корп. 1",fitness,Фитнес-клуб,sport,пн-пт 10:00–22:00
507,55.699396,37.555822,Клуб водных видов спорта Нататор,231274107594,"Россия, Москва, улица Фотиевой, 16к2",fitness,"Спортивный клуб, секция",sport,"вт,чт 19:00–21:00; сб 11:00–13:00"
508,55.707491,37.626493,Одним глазком,39185451376,"Россия, Москва, Гамсоновский переулок, 2",fallback fun,Квесты,entertainment,"ежедневно, 10:00–02:30"
509,55.705037,37.639815,Агентство по управлению бизнесом,16898202366,"Россия, Москва, Автозаводская улица, 18",office service,Бизнес-консалтинг,business,пн-пт 10:00–18:00
510,55.740254,37.589599,Спортивный клуб Десантник,1039229071,"Россия, Москва, улица Пречистенка, 34/18",fitness,"Спортивный клуб, секция",sport,"ежедневно, 09:00–22:00"
511,55.745575,37.626897,Бьёрн,83999551334,"Россия, Москва, Пятницкая улица, 3/4с1",restaurants,Ресторан,cafe,"ежедневно, 12:00–00:00"
512,55.670131,37.521044,Алодерм,1266897905,"Россия, Москва, Ленинский проспект, 99",medicine,"Медцентр, клиника",medicine,пн-сб 10:00–22:00; вс 10:00–20:00
513,55.72787,37.630385,Pho U,190682058398,"Россия, Москва, Стремянный переулок, 26",cafe,Кафе,cafe,"пн-пт 10:00–23:00; сб,вс 12:00–23:00"
514,55.744723,37.560943,Сандрс,36538150522,"Россия, Москва, Брянская улица, 8",fitness,"Спортивный клуб, секция",sport,"вт,чт,сб 15:00–21:30"
515,55.743447,37.653371,"Skuratov, coffee roasters",16135145577,"Россия, Москва, Верхняя Радищевская улица, 19/3с2",cafe,Кофейня,cafe,"ежедневно, 06:55–22:05"
516,55.752169,37.588238,Vesna,65593428694,"Россия, Москва, улица Новый Арбат, 19, стр. 1",malls,Торговый центр,malls,"ежедневно, 10:00–22:00"
517,55.73926,37.633284,Грин боул,123208451738,"Россия, Москва, Большая Татарская улица, 26",cafe,Кафе,cafe,"пн-пт 09:00–21:00; сб,вс 10:00–20:00"
518,55.737091,37.657197,Авахо.ру,1315121404,"Россия, Москва, Воронцовская улица, 20, стр. 6",software,Информационный интернет-сайт,services,"ежедневно, круглосуточно"
519,55.709253,37.618488,Ресторан корейской кухни Новая Азия,22471495986,"Россия, Москва, 2-я Рощинская улица, 1А",restaurants,Ресторан,cafe,"ежедневно, 12:00–00:00"
520,55.744318,37.581503,Адресъ-Недвижимость,232405349099,"Россия, Москва, улица Плющиха, 9, стр. 2",office service,Агентство недвижимости,services,пн-пт 10:00–20:30
521,55.75048,37.653467,Фитнес-клуб Reset,107831841856,"Россия, Москва, Серебряническая набережная, 29",fitness,Фитнес-клуб,sport,"пн-пт 07:00–00:00; сб,вс 09:00–21:00"
522,55.72972,37.645917,Азбука Питания,223940947789,"Россия, Москва, Кожевническая улица, 7, стр. 1",cafe,Столовая,cafe,пн-сб 10:00–20:00; вс 10:00–19:00
523,55.726969,37.652184,Мастер стиля,111085847419,"Россия, Москва, улица Кожевнический Вражек, 3",spa,Салон красоты,beauty,"пн-пт 10:00–21:00; сб,вс 11:00–19:00"
524,55.749311,37.537254,Ар.Эс.Кей.Бизнес Груп,126742237520,"Россия, Москва, Пресненская набережная, 12",office service,Бизнес-консалтинг,business,"пн-пт 10:00–17:00, перерыв 13:00–14:00"
525,55.706315,37.603002,Юридический центр Бизнес Адвизор,90066037869,"Россия, Москва, 2-й Рощинский проезд, 8",office service,Юридические услуги,business,"ежедневно, круглосуточно"
526,55.735049,37.63058,Studia Nails,168397063613,"Россия, Москва, 1-й Новокузнецкий переулок, 10А",spa,Ногтевая студия,beauty,"ежедневно, 10:00–22:00"
527,55.675301,37.610566,My Pizza,200551097037,"Россия, Москва, Электролитный проезд, 7, корп. 2",fallback services,Доставка еды и обедов,cafe,"ежедневно, 10:00–23:00"
528,55.743659,37.577975,Карасик,150225751149,"Россия, Москва, улица Плющиха, 20/2",bars,"Бар, паб",cafe,"ежедневно, 12:00–00:00"
529,55.664492,37.557908,Самбо-70,1772538204,"Россия, Москва, Новочерёмушкинская улица, 64, корп. 4",fitness,Спортивный комплекс,sport,"ежедневно, 08:00–22:00"
530,55.732864,37.593228,Lucky You,88301524093,"Россия, Москва, Комсомольский проспект, 3",spa,Салон красоты,beauty,"ежедневно, 10:00–22:00"
531,55.658395,37.757372,Торговый центр,200903081767,"Россия, Москва, Братиславская улица, 16, корп. 2",malls,Торговый центр,malls,"ежедневно, 10:00–20:00"
532,55.72821,37.58049,К24,1136178701,"Россия, Москва, Комсомольский проспект, 24",malls,Торговый центр,malls,"ежедневно, 10:00–22:00"
533,55.721523,37.62298,Cloud Beauty,1202074219,"Россия, Москва, Люсиновская улица, 41, стр. 1",spa,Косметология,beauty,"ежедневно, 10:00–21:00"
534,55.738297,37.626484,Интернет-магазин Admedicine.net,1356740064,"Россия, Москва, улица Малая Ордынка, 13, стр. 3",drugstores,"Фитопродукция, БАДы",medicine,пн-пт 10:00–19:30; сб 10:00–15:00
535,55.72637,37.626412,Школа Тайцзи и Цигун Мастера Ван Лина,146610224515,"Россия, Москва, Большая Серпуховская улица, 19/37с4",medicine,Оздоровительный центр,sport,"пн 20:30–22:00; вт,пт 17:15–18:50"
536,55.72849,37.649159,Инлав Бьюти,1877690798,"Россия, Москва, Кожевническая улица, 20А, стр. 1",hairdressers,Парикмахерская,beauty,"ежедневно, 10:00–21:00"
537,55.71124,37.652436,Группа компаний Favorite Home,1336308669,"Россия, Москва, улица Ленинская Слобода, 26, стр. 5",office service,Агентство недвижимости,services,пн-пт 09:00–18:00
538,55.725463,37.587515,Prive7,1730884967,"Россия, Москва, Фрунзенская набережная, 24",spa,Салон красоты,beauty,"ежедневно, 10:00–22:00"
539,55.699647,37.538307,Трёхзальный корпус МГУ,237535902154,"Россия, Москва, микрорайон Ленинские Горы, 1, стр. 37",fitness,Спортивный комплекс,sport,"ежедневно, 09:00–21:00"
540,55.73186,37.737884,Спортивная школа Косино,17159608154,"Россия, Москва, Рязанский проспект, 7, корп. 3",swimming pool,Бассейн,sport,"ежедневно, 07:15–22:00"
541,55.709741,37.576927,Салон Красоты Art Nail,1616445450,"Россия, Москва, улица Косыгина, 2, корп. 1",spa,Салон красоты,beauty,"ежедневно, 10:00–22:00"
542,55.703462,37.640045,Дизайн Молл,94973751946,"Россия, Москва, Автозаводская улица, 23, корп. 7",malls,Торговый центр,malls,"ежедневно, 10:00–20:00"
543,55.685165,37.628798,FightRepublic,237788360315,"Россия, Москва, 1-й Нагатинский проезд, 2, стр. 7",fitness,"Спортивный клуб, секция",sport,"пн-пт 07:00–23:00; сб,вс 09:00–18:00"
544,55.727658,37.645294,Синофарм,1112504689,"Россия, Москва, Летниковская улица, 5",drugstores,"Фитопродукция, БАДы",medicine,"ежедневно, 09:00–21:00"
545,55.712251,37.657548,Corso Coffee,105013841494,"Россия, Москва, улица Ленинская Слобода, 26, стр. 2",cafe,Кофе с собой,cafe,"пн-пт 08:30–21:00; сб,вс 09:45–21:00"
546,55.744607,37.626969,Есть Хинкали&Пить Вино,1777950976,"Россия, Москва, Пятницкая улица, 6/1с1",restaurants,Ресторан,cafe,"ежедневно, 11:00–00:00"
547,55.655999,37.597775,Кальянная Мята Lounge,236625402791,"Россия, Москва, Азовская улица, 18",bars,"Бар, паб",cafe,"пн-пт 12:00–04:00; сб,вс 12:00–05:00"
548,55.729313,37.622087,Му-Му,1145449555,"Россия, Москва, улица Коровий Вал, 1",cafe,Кафе,cafe,"ежедневно, 08:00–23:00"
549,55.734663,37.753101,Павильон НеКухня,230907248614,"Россия, Москва, 2-я Карачаровская улица, 1, стр. 1",fallback services,Фотоуслуги,services,"ежедневно, круглосуточно"
550,55.745189,37.564419,Фото-копировальный центр Копирка,45045800986,"Россия, Москва, Брянская улица, 2",printing services,Копировальный центр,services,"ежедневно, 09:00–21:00"
551,55.709564,37.616628,ТэКа Групп,1109043864,"Россия, Москва, 2-я Рощинская улица, 4",office service,Юридические услуги,business,пн-пт 10:00–19:00
552,55.703836,37.654749,А'ля Ева,1335177178,"Россия, Москва, Автозаводская улица, 17, корп. 3",medicine,"Медцентр, клиника",medicine,пн-пт 10:00–16:00
553,55.748102,37.707093,Фотоцентр plenki.net,1765411603,"Россия, Москва, шоссе Энтузиастов, 12, корп. 2",fallback services,Фотоуслуги,services,"ежедневно, 09:00–21:00, перерыв 14:00–14:30"
554,55.704232,37.625999,Банк-Стафф,1040830061,"Россия, Москва, Варшавское шоссе, 1, стр. 2",office service,Кадровое агентство,business,пн-пт 09:30–18:00
555,55.717229,37.607457,Точка Красоты,1382746778,"Россия, Москва, улица Шаболовка, 38",spa,Салон красоты,beauty,"ежедневно, 09:30–21:30"
556,55.739562,37.659627,Булочные Фокина,23099787413,"Россия, Москва, переулок Маяковского, 2",confectionary,"Булочная, пекарня",cafe,"ежедневно, 08:00–22:00"
557,55.70629,37.596529,Руфинор бизнес решения,120187868203,"Россия, Москва, улица Орджоникидзе, 11, стр. 11",office service,Бухгалтерские услуги,business,пн-пт 09:00–22:00
558,55.740181,37.537322,Фотоуслуги,35337408872,"Россия, Москва, Кутузовский проспект, 35",fallback services,Фотоуслуги,services,пн-пт 10:00–20:00; сб 11:00–17:00
559,55.726938,37.524186,Салон красоты Jp,1018727808,"Россия, Москва, улица Пырьева, 9, корп. 2",spa,Салон красоты,beauty,"ежедневно, 10:00–22:00"
560,55.70491,37.640379,Ривьера,17524064571,"Россия, Москва, Автозаводская улица, 18",malls,Торговый центр,entertainment,"ежедневно, 10:00–22:00"
561,55.705801,37.593825,Gagawa,30622641844,"Россия, Москва, улица Вавилова, 3",restaurants,Ресторан,cafe,"ежедневно, 09:00–22:00"
562,55.708798,37.622257,Шоколад,95671249701,"Россия, Москва, Большая Тульская улица, 13",fallback services,Фотостудия,services,"ежедневно, 08:30–22:30"
563,55.680064,37.666385,Фотоуслуги,192489009069,"Россия, Москва, Судостроительная улица, 1",fallback services,Фотоуслуги,services,пн-пт 10:00–20:00; сб 12:00–18:00
564,55.731064,37.589245,Double Beauty,1095538273,"Россия, Москва, Комсомольский проспект, 14/1к1",spa,Салон красоты,beauty,"ежедневно, 10:00–21:00"
565,55.721863,37.56881,Галерея здоровья и красоты iO,21883335872,"Россия, Москва, улица Ефремова, 19, корп. 4",spa,Салон красоты,beauty,пн-сб 09:00–22:00; вс 10:00–21:00
566,55.737588,37.594432,Центр традиционной фито и гирудотерапии,1075319755,"Россия, Москва, Кропоткинский переулок, 4, стр. 1",medicine,Нетрадиционная медицина,medicine,"ежедневно, 09:00–21:00"
567,55.710061,37.624054,Студия Загара Лагуна,161619744806,"Россия, Москва, Большая Тульская улица, 11",spa,Солярий,beauty,"ежедневно, 10:00–22:00"
568,55.698782,37.744585,Недвижимость столицы,1019019076,"Россия, Москва, улица Малышева, 13к2",office service,Агентство недвижимости,services,"ежедневно, 09:00–21:00"
569,55.737309,37.636662,Infinity Dress,6655492739,"Россия, Москва, Большая Татарская улица, 35с7-9",fallback services,Пункт проката,services,"ежедневно, 10:00–20:00"
570,55.708881,37.669432,360bits,229022197376,"Россия, Москва, улица Сайкина, 1/2",fallback services,Фотоуслуги,services,пн-пт 10:00–19:00
571,55.691513,37.541412,Пункт выдачи заказов,20394898329,"Россия, Москва, Молодёжная улица, 6",malls,Пункт выдачи,services,"ежедневно, 10:00–22:00"
572,55.708308,37.68067,ЦБС ЮВАО библиотека № 121,1773809783,"Россия, Москва, улица Петра Романова, 6",library,Библиотека,services,вт-сб 12:00–22:00; вс 12:00–20:00
573,55.732504,37.588674,Многопрофильная клиника Лёгкое Дыхание,1392614113,"Россия, Москва, улица Льва Толстого, 7А",medicine,"Медцентр, клиника",medicine,пн-сб 08:30–22:00
574,55.740061,37.661752,РайдоРа,227113441685,"Россия, Москва, Таганская улица, 24, стр. 1",cafe,Кафе,cafe,"пн-пт 08:00–20:00; сб,вс 09:30–20:00"
575,55.744359,37.566077,Boft,1462144835,"Россия, Москва, площадь Киевского Вокзала, 2",fallback services,Фотоуслуги,services,"пн-чт 10:00–22:00; пт,сб 10:00–23:00; вс 10:00–22:00"
576,55.726639,37.574226,ЛюксДом,151398700950,"Россия, Москва, Трубецкая улица, 12",office service,Элитная недвижимость,services,пн-пт 10:00–21:00
577,55.713218,37.646623,Мерси,1237258743,"Россия, Москва, Павелецкая набережная, 4",spa,Салон красоты,beauty,пн-сб 10:00–21:00; вс 10:00–20:00
578,55.702796,37.651828,Арсеналъ-Спорт,1078920590,"Россия, Москва, Автозаводская улица, 21",fitness,Фитнес-клуб,sport,пн-пт 18:00–21:00
579,55.747115,37.539078,Купи бизнес,173417942664,"Россия, Москва, Пресненская набережная, 8, стр. 1",office service,Продажа готового бизнеса и франшиз,business,"ежедневно, круглосуточно"
580,55.743453,37.629569,Пятницкий,1004193730,"Россия, Москва, Пятницкий переулок, 2",malls,Торговый центр,malls,"пн-пт 09:00–20:00; сб,вс 09:00–19:00"
581,55.711488,37.656375,Fusion Fitness на Автозаводской,232908725549,"Россия, Москва, улица Ленинская Слобода, 26, стр. 3",fitness,Фитнес-клуб,sport,"ежедневно, круглосуточно"
582,55.720291,37.667123,Pravilo. Moscow,91080066325,"Россия, Москва, Новоостаповская улица, 6А, стр. 1",fitness,"Спортивный, тренажёрный зал",sport,"ежедневно, 07:00–23:00"
583,55.726457,37.628604,Studio22-студия красоты и эстетики,125175141735,"Россия, Москва, улица Щипок, 2",spa,Салон красоты,beauty,"ежедневно, 10:00–22:00"
584,55.747318,37.679971,Салон красоты Mj studio,74550397599,"Россия, Москва, улица Золоторожский Вал, 42",spa,Салон красоты,beauty,"ежедневно, 10:00–21:00"
585,55.727087,37.525304,Клиника эстетической медицины El Medico,1259548614,"Россия, Москва, улица Пырьева, 9, корп. 1",medicine,"Медцентр, клиника",medicine,"пн-пт 10:00–21:00; сб,вс 11:00–18:00"
586,55.716022,37.64648,Школа бокса имени В. И. Белова Jab Gym,1674654728,"Россия, Москва, Павелецкая набережная, 2",fitness,"Спортивный клуб, секция",sport,пн-сб 08:00–23:00
587,55.766239,37.613786,Med and Care,1100063015,"Россия, Москва, Петровский переулок, 5, стр. 9",medicine,"Медцентр, клиника",medicine,пн-сб 09:00–21:00
588,55.705497,37.68948,Боксерский клуб Ударник,223164761881,"Россия, Москва, Южнопортовая улица, 22, стр. 1",fitness,"Спортивный клуб, секция",sport,"ежедневно, 07:00–22:30"
589,55.707089,37.59145,Гагаринский,1013729832,"Россия, Москва, улица Вавилова, 3",malls,Торговый центр,malls,"ежедневно, 09:00–22:00"
590,55.684235,37.571557,Vesna,36491837393,"Россия, Москва, Профсоюзная улица, 5/9",spa,Салон красоты,beauty,"ежедневно, 10:00–22:00"
591,55.691465,37.574831,Нотариус Щекочихин П. А.,168021322165,"Россия, Москва, проспект 60-летия Октября, 14",office service,Нотариусы,services,пн-пт 09:30–17:30; сб 10:00–14:00
592,55.683415,37.580247,Фабрика грёз,1108221285,"Россия, Москва, Новочерёмушкинская улица, 16",spa,Салон красоты,beauty,"ежедневно, 09:00–21:00"
593,55.706883,37.592096,Копирка Плюс,201586821623,"Россия, Москва, улица Вавилова, 3",printing services,Копировальный центр,services,"пн,пт 10:00–18:00, перерыв 13:00–14:00"
594,55.689616,37.60247,РИО,1052969913,"Россия, Москва, Большая Черёмушкинская улица, 1",malls,Торговый центр,malls,"ежедневно, 10:00–22:00"
595,55.707135,37.572748,Илларион,146786760008,"Россия, Москва, улица Косыгина, 5",cafe,Кафе,cafe,"ежедневно, 11:00–23:00"
596,55.703794,37.501124,The Lashes,80243503452,"Россия, Москва, улица Столетова, 9",spa,Салон бровей и ресниц,beauty,"ежедневно, 09:00–22:00"
597,55.707912,37.588162,Нотариус Бочикашвили Г. М.,113057226183,"Россия, Москва, улица Вавилова, 6",office service,Нотариусы,services,"пн-чт 10:00–17:00, перерыв 13:30–14:30; пт 10:00–13:30"
598,55.716813,37.607709,Testo,187523142501,"Россия, Москва, улица Шаболовка, 40",confectionary,"Булочная, пекарня",cafe,"пн-пт 08:00–22:00; сб,вс 09:00–21:00"
599,55.749076,37.655127,Столичный фотосервис,80471593261,"Россия, Москва, улица Земляной Вал, 52/16с1",fallback services,Фотоуслуги,services,"ежедневно, 09:00–20:00"
600,55.691884,37.572511,Спортивный зал,1332340552,"Россия, Москва, Черёмушкинский проезд, 5",fitness,"Спортивный, тренажёрный зал",sport,"ежедневно, 08:00–23:00"
601,55.728621,37.644791,Jones Lang LaSalle,1366711773,"Россия, Москва, Летниковская улица, 2, стр. 1",office service,Агентство недвижимости,business,пн-пт 08:00–20:00
602,55.747098,37.579705,Гвм Интернешионал,46446738572,"Россия, Москва, 1-й Смоленский переулок, 7",medicine,"Медцентр, клиника",medicine,пн-пт 08:00–21:30; сб 09:00–21:00; вс 09:00–15:00
603,55.720945,37.636572,Зефир,151813042384,"Россия, Москва, Дубининская улица, 57, стр. 2",cafe,Кофейня,cafe,пн-пт 08:30–18:30
604,55.709028,37.628559,LunchCity,93804860499,"Россия, Москва, Холодильный переулок, 3, корп. 1, стр. 13",cafe,Столовая,cafe,"пн-пт 08:00–20:00; сб,вс 09:00–20:00"
605,55.729321,37.616249,Starlite Diner,1075882875,"Россия, Москва, улица Коровий Вал, 9А",restaurants,Ресторан,cafe,"ежедневно, круглосуточно"
606,55.744265,37.624632,Дентал Бьюти Бутик,24401961834,"Россия, Москва, улица Большая Ордынка, 6/2с10",spa,Салон красоты,beauty,"пн,вт,ср,чт,пт,вс 10:00–22:00"
607,55.709597,37.657344,Кофикс,65858541242,"Россия, Москва, улица Мастеркова, 2",cafe,Кофейня,cafe,"ежедневно, 07:00–23:00"
608,55.750691,37.594696,Бей посуду,191713927221,"Россия, Москва, улица Арбат, 16/2с3",attraction,Парк аттракционов,entertainment,"ежедневно, 12:00–20:00"
609,55.736114,37.656713,Thai-spa салон 7 Красок,112611597585,"Россия, Москва, улица Большие Каменщики, 19",spa,Массажный салон,beauty,"ежедневно, 10:00–22:00"
610,55.724434,37.650774,Фотостудия,222070770703,"Россия, Москва, Дербеневская набережная, 7, стр. 16",printing services,Копировальный центр,services,"ежедневно, круглосуточно"
611,55.726695,37.627373,Служба Быта,142276028637,"Россия, Москва, Стремянный переулок, 35",fallback services,Ремонт обуви,services,пн-пт 10:00–20:00; сб 10:00–15:00
612,55.710913,37.748164,Артфото,111790574097,"Россия, Москва, Юго-Восточный административный округ, район Текстильщики, Волжский Бульвар 95-й квартал, к2",fallback services,Фотоуслуги,services,"ежедневно, 09:00–20:00"
613,55.669925,37.613647,Edinoborec77,210019150666,"Россия, Москва, Криворожская улица, 6А, стр. 3",fitness,"Спортивный клуб, секция",sport,пн-чт 16:00–20:00
614,55.704167,37.740897,Winner,17688240724,"Россия, Москва, 8-я улица Текстильщиков, 8",fitness,Фитнес-клуб,sport,"пн-пт 07:00–00:00; сб,вс 09:00–23:00"
615,55.691736,37.537883,Coffee Moose,118659932370,"Россия, Москва, Ломоносовский проспект, 23",cafe,Кофейня,cafe,"пн-пт 08:00–21:00; сб,вс 09:00–21:00"
616,55.750535,37.570083,Альянс Медикаль,95964158751,"Россия, Москва, Кутузовский проспект, 1/7",medicine,"Медцентр, клиника",medicine,пн-сб 09:00–18:00
617,55.691618,37.582682,Ясновидящая Рита,119770160843,"Россия, Москва, улица Гримау, 3к1",medicine,Нетрадиционная медицина,medicine,пн-пт 10:00–21:00
618,55.708332,37.622054,ДаблБи,138647718681,"Россия, Москва, Большая Тульская улица, 13",cafe,Кофейня,cafe,"пн-пт 08:00–22:00; сб,вс 10:00–22:00"
619,55.705452,37.614861,Мастер Ёж,16786831768,"Россия, Москва, Духовской переулок, 14",mobile phones,Ремонт телефонов,services,"пн-пт 10:00–21:00; сб,вс 11:00–21:00"
620,55.734162,37.637075,Нотариус Орлова М. А.,1043400859,"Россия, Москва, улица Бахрушина, 21, стр. 3",office service,Нотариусы,services,"пн-чт 09:00–17:00, перерыв 14:00–15:00; пт 09:00–14:00"
621,55.712112,37.620555,Maestrello,3658485045,"Россия, Москва, Мытная улица, 74",restaurants,Пиццерия,cafe,"ежедневно, 10:00–22:00"
622,55.751977,37.585804,МатчПоинт,1786643331,"Россия, Москва, улица Новый Арбат, 21, стр. 1",bars,Спортбар,entertainment,"ежедневно, круглосуточно"
623,55.737359,37.576422,Спротивный клуб Содействие,215122531425,"Россия, Москва, улица Плющиха, 57",fitness,"Спортивный клуб, секция",sport,вт 18:00–20:00; чт 19:00–21:00
624,55.713334,37.568812,Business Services LLC,1169369057,"Москва, Лужнецкая наб., 6/1",auto,Заказ автомобилей,business,"ежедневно, круглосуточно"
625,55.689332,37.581367,Андромед,1297761486,"Россия, Москва, улица Винокурова, 2",medicine,Урологический центр,medicine,пн-пт 08:30–20:30; сб 09:00–14:00
626,55.735941,37.556164,Тренинги для отелей. Live. Personal&Business,118643641454,"Россия, Москва, Бережковская набережная, 20, стр. 45",college,Тренинги,business,пн-пт 10:00–19:00
